City_ID,City,Lat,Lng,Max Temp,Humidity,Cloudiness,Wind Speed,Country,Date
0,walvis bay,-22.9575,14.5053,77.95,25,0,13.8,NA,1719529006
1,albany,42.6001,-73.9662,71.58,54,32,1.99,US,1719528725
2,punta arenas,-53.15,-70.9167,30.31,93,100,3.44,CL,1719528715
3,blackmans bay,-43.0167,147.3167,47.73,87,100,1.99,AU,1719529007
4,bethel,41.3712,-73.414,80.01,54,5,1.99,US,1719528787
5,hamilton,39.1834,-84.5333,84.76,48,40,6.91,US,1719529007
6,waitangi,-43.9535,-176.5597,53.82,96,100,5.01,NZ,1719529007
7,port lincoln,-34.7333,135.8667,58.46,51,100,17.78,AU,1719529007
8,hithadhoo,-0.6,73.0833,82.92,73,86,2.33,MV,1719529007
9,arkhangel'sk,64.5401,40.5433,50.11,100,40,6.71,RU,1719528804
10,adamstown,-25.066,-130.1015,70.57,82,9,17.18,PN,1719529008
11,grytviken,-54.2811,-36.5092,25.25,94,100,10.65,GS,1719529008
12,mount gambier,-37.8333,140.7667,49.87,59,100,11.5,AU,1719528805
13,udachny,66.4167,112.4,68.88,45,95,8.25,RU,1719529008
14,oranjemund,-28.55,16.4333,70.18,33,0,12.68,NA,1719528910
15,dudinka,69.4058,86.1778,64.98,85,93,17.18,RU,1719528804
16,carnarvon,-24.8667,113.6333,66.85,66,15,23.02,AU,1719528803
17,copala,16.65,-98.9833,83.71,69,48,10.76,MX,1719529009
18,p'ot'i,42.1462,41.672,66.07,81,21,6.98,GE,1719529009
19,puerto ayora,-0.7393,-90.3518,84.16,92,98,5.01,EC,1719529009
20,katsuura,35.1333,140.3,71.62,97,100,8.72,JP,1719529009
21,puerto natales,-51.7236,-72.4875,28.45,89,25,2.68,CL,1719529009
22,yongchuan,29.3514,105.8947,68.29,99,100,1.52,CN,1719529009
23,tralee,52.2704,-9.7026,52.47,86,57,14.72,IE,1719529010
24,port-aux-francais,-49.35,70.2167,36.48,64,85,31.5,TF,1719529010
25,lebu,-37.6167,-73.65,48.51,80,0,11.99,CL,1719529010
26,college,64.8569,-147.8028,84.07,29,75,0.0,US,1719528927
27,saint-pierre,-21.3393,55.4781,65.88,72,100,9.22,RE,1719529011
28,tiksi,71.6872,128.8694,39.85,71,56,7.94,RU,1719528791
29,margaret river,-33.95,115.0667,55.13,88,88,12.62,AU,1719529011
30,papatowai,-46.5619,169.4708,47.62,85,100,1.43,NZ,1719529011
31,bredasdorp,-34.5322,20.0403,58.26,52,0,4.74,ZA,1719529011
32,daru,-9.0763,143.2092,79.54,91,69,15.66,PG,1719529012
33,mkushi,-13.6202,29.3939,55.11,63,0,6.67,ZM,1719529012
34,cockburn town,21.4612,-71.1419,82.0,88,32,15.26,TC,1719528931
35,lompoc,34.6391,-120.4579,68.59,68,20,12.66,US,1719529012
36,riviere-du-loup,47.8304,-69.5342,52.07,87,100,9.22,CA,1719528834
37,talnakh,69.4865,88.3972,67.86,75,84,10.0,RU,1719529012
38,afaahiti,-17.75,-149.2833,80.47,83,40,23.38,PF,1719529013
39,bilibino,68.0546,166.4372,62.64,39,100,2.01,RU,1719529013
40,olonkinbyen,70.9221,-8.7187,37.02,90,100,6.71,SJ,1719529013
41,isafjordur,66.0755,-23.124,40.68,78,71,6.17,IS,1719528807
42,wailua homesteads,22.0669,-159.378,81.39,74,75,12.66,US,1719528791
43,luderitz,-26.6481,15.1594,69.57,35,3,6.78,NA,1719529013
44,el nido,11.1858,119.3956,81.97,81,48,10.02,PH,1719529014
45,novyy urgal,51.0736,132.5642,68.79,75,98,3.38,RU,1719529014
46,lihue,21.9789,-159.3672,81.99,70,75,12.66,US,1719529014
47,edinburgh of the seven seas,-37.0676,-12.3116,52.02,63,86,19.71,SH,1719529014
48,ad dabbah,18.05,30.95,91.47,10,99,7.76,SD,1719529014
49,jamestown,42.097,-79.2353,68.02,60,20,9.22,US,1719528796
50,gadzhiyevo,69.2551,33.3362,47.88,79,4,6.96,RU,1719529015
51,vilyuchinsk,52.9306,158.4028,59.27,76,47,4.5,RU,1719529015
52,pandan,14.0453,124.1694,81.45,85,100,3.42,PH,1719529015
53,quellon,-43.1167,-73.6167,45.68,78,78,16.67,CL,1719529015
54,geraldton,-28.7667,114.6,57.61,94,40,9.22,AU,1719529015
55,talipparamba,12.05,75.35,77.04,93,93,4.63,IN,1719529015
56,stanley,54.868,-1.6985,55.42,81,40,12.66,GB,1719528942
57,magistral'nyy,56.1725,107.4458,65.07,50,29,6.2,RU,1719529016
58,concordia,-31.393,-58.0209,57.27,72,0,9.22,AR,1719528988
59,gizo,-8.103,156.8419,82.87,77,55,11.45,SB,1719529016
60,port mathurin,-19.6833,63.4167,71.98,74,100,19.51,MU,1719529016
61,qaqortoq,60.7167,-46.0333,44.91,72,100,4.5,GL,1719529016
62,utrik,11.2278,169.8474,82.51,76,32,17.2,MH,1719529016
63,tura,25.5198,90.2201,75.94,97,100,7.07,IN,1719529016
64,iskateley,67.6803,53.1512,40.64,85,63,7.85,RU,1719529016
65,varkaus,62.3153,27.873,67.3,73,34,2.17,FI,1719529017
66,alaca,40.1683,34.8425,56.03,67,0,2.66,TR,1719529017
67,mana,5.6592,-53.7767,78.4,87,59,8.37,GF,1719529017
68,flying fish cove,-10.4217,105.6791,78.48,88,100,11.5,CX,1719529017
69,nacala,-14.5428,40.6728,67.5,94,3,7.38,MZ,1719529017
70,medicine hat,50.0501,-110.6683,63.72,75,100,1.01,CA,1719529017
71,georgetown,5.4112,100.3354,80.53,83,20,3.44,MY,1719529017
72,houlton,46.1262,-67.8403,68.41,78,40,5.75,US,1719529017
73,saipan,15.1355,145.701,86.7,74,40,16.11,MP,1719528788
74,fort bragg,35.139,-79.006,86.2,62,75,6.91,US,1719529018
75,mount isa,-20.7333,139.5,65.97,68,0,0.0,AU,1719529018
76,posto fiscal rolim de moura,-13.0833,-62.2667,79.12,41,19,0.56,BR,1719529018
77,chadron,42.8294,-102.9999,96.48,23,0,8.05,US,1719529018
78,whitehorse,60.7161,-135.0538,77.77,32,40,5.75,CA,1719528809
79,pudasjarvi,65.3833,26.9167,55.98,64,2,4.16,FI,1719529018
80,ushuaia,-54.8,-68.3,28.06,74,75,4.61,AR,1719528843
81,gemena,3.25,19.7667,70.03,87,70,0.31,CD,1719529019
82,garden city,42.3256,-83.331,73.65,49,75,6.91,US,1719529019
83,pundong,-7.9522,110.3486,74.91,94,80,3.22,ID,1719529019
84,ola,59.5833,151.2833,50.31,88,100,3.29,RU,1719529019
85,mugia,43.1041,-9.2179,65.16,89,2,26.13,ES,1719529019
86,port elizabeth,-33.918,25.5701,53.89,100,0,3.44,ZA,1719529019
87,queenstown,-31.8976,26.8753,49.21,55,0,4.23,ZA,1719529019
88,saynshand,44.8824,110.1163,65.44,58,98,21.68,MN,1719529019
89,sihanoukville,10.6093,103.5296,80.55,94,20,2.3,KH,1719529020
90,helong,42.5397,128.9972,77.81,54,99,3.4,CN,1719529020
91,aasiaat,68.7098,-52.8699,38.21,87,93,14.83,GL,1719529020
92,yulinshi,38.2906,109.7494,74.8,47,93,7.74,CN,1719529020
93,diawara,15.022,-12.5437,100.31,20,32,5.3,SN,1719529020
94,fisterra,42.9049,-9.2629,65.01,83,1,25.17,ES,1719529020
95,crane,31.3974,-102.3501,99.01,23,4,20.71,US,1719529020
96,tongouson,5.0214,120.1328,83.28,77,91,11.99,PH,1719529020
97,ak-dovurak,51.1833,90.6,63.19,70,2,1.21,RU,1719529021
98,enewetak,11.3474,162.3373,82.94,78,91,16.15,MH,1719529021
99,arraial do cabo,-22.9661,-42.0278,71.56,83,40,4.61,BR,1719528943
100,prince rupert,54.3161,-130.3201,55.09,97,100,4.61,CA,1719529021
101,anadyr,64.75,177.4833,57.7,82,75,8.95,RU,1719529021
102,kingston,17.997,-76.7936,83.35,79,100,8.05,JM,1719528893
103,telimele,10.9167,-13.3333,73.56,96,85,3.44,GN,1719529021
104,vorkuta,67.5,64.0,39.96,91,100,13.11,RU,1719529021
105,praia da vitoria,38.7333,-27.0667,71.76,83,40,8.48,PT,1719529022
106,chistopol',55.3631,50.6424,53.89,87,87,8.52,RU,1719529022
107,badger,64.8,-147.5333,83.98,33,75,1.01,US,1719529022
108,nova borova,50.693,28.6345,66.83,81,78,7.34,UA,1719529022
109,holyhead,53.3062,-4.6321,57.2,82,100,21.85,GB,1719529022
110,invercargill,-46.4,168.35,45.01,94,100,1.99,NZ,1719529023
111,kone,-21.0595,164.8658,77.61,51,25,2.82,NC,1719529023
112,mejit,10.2753,170.8646,82.71,77,13,16.71,MH,1719529023
113,woolgoolga,-30.1106,153.2007,57.07,66,81,8.57,AU,1719529023
114,varde,55.6211,8.4807,66.97,91,20,5.75,DK,1719529023
115,sonoita,31.85,-112.8333,98.24,30,65,18.43,MX,1719529023
116,faya-largeau,17.9257,19.1043,91.81,9,71,11.32,TD,1719529023
117,cooma,-36.2333,149.1333,44.83,82,40,1.48,AU,1719529024
118,chui,-33.6971,-53.4616,51.13,88,5,10.02,UY,1719529024
119,nema,57.5067,50.5011,46.62,97,49,5.3,RU,1719529024
120,pacasmayo,-7.4006,-79.5714,65.41,84,75,13.09,PE,1719529024
121,darwin,-12.4611,130.8418,75.18,82,40,5.75,AU,1719528782
122,chenaran,36.6455,59.1212,70.23,54,10,3.02,IR,1719529024
123,betio village,1.358,172.9211,87.84,78,78,10.6,KI,1719528910
124,ribeira grande,38.5167,-28.7,72.77,84,11,8.99,PT,1719528788
125,camiri,-20.05,-63.5167,71.38,49,69,0.0,BO,1719529025
126,hasaki,35.7333,140.8333,72.28,97,100,6.73,JP,1719529025
127,togur,58.3631,82.8265,68.07,89,81,5.37,RU,1719529025
128,fale old settlement,-9.3852,-171.2468,83.1,76,54,15.05,TK,1719529025
129,ilhabela,-23.7781,-45.3581,68.81,88,100,6.17,BR,1719529025
130,pedernales,18.0384,-71.744,85.26,71,98,10.2,DO,1719529025
131,palikir - national government center,6.9248,158.1611,79.65,94,100,3.44,FM,1719528812
132,tolanaro,-25.0319,46.9987,62.67,82,20,9.22,MG,1719529026
133,elko,41.0002,-115.5012,82.06,18,62,15.99,US,1719529026
134,yellowknife,62.456,-114.3525,68.56,48,40,8.01,CA,1719529026
135,zhangye,38.9342,100.4517,70.88,39,82,5.44,CN,1719529026
136,moyale,3.5167,39.0584,68.41,66,96,4.29,KE,1719529026
137,westport,41.1415,-73.3579,82.17,50,40,10.36,US,1719529026
138,sheopur,25.6667,76.7,85.95,72,100,5.01,IN,1719529026
139,longyearbyen,78.2186,15.6401,42.64,75,75,24.16,SJ,1719529026
140,moose jaw,50.4001,-105.5344,64.67,82,100,20.71,CA,1719529027
141,puerto baquerizo moreno,-0.9,-89.6,76.19,83,75,8.48,EC,1719528731
142,kalmunai,7.4167,81.8167,82.06,75,100,1.48,LK,1719529027
143,dunedin,-45.8742,170.5036,46.8,72,97,1.01,NZ,1719528862
144,boguchany,58.3814,97.4531,72.88,60,96,0.6,RU,1719529027
145,retreat,38.8245,-85.8533,83.82,69,4,10.02,US,1719529027
146,mata-utu,-13.2816,-176.1745,82.54,80,42,18.7,WF,1719529027
147,ilulissat,69.2167,-51.1,45.39,73,100,17.72,GL,1719529027
148,hermanus,-34.4187,19.2345,62.49,52,0,8.95,ZA,1719529028
149,macau,22.2006,113.5461,85.8,89,20,2.3,MO,1719529028
150,haiku-pauwela,20.9219,-156.3051,81.21,73,8,5.99,US,1719529028
151,vila franca do campo,37.7167,-25.4333,68.41,99,76,7.47,PT,1719528796
152,nemuro,43.3236,145.575,59.31,87,66,9.78,JP,1719529028
153,new norfolk,-42.7826,147.0587,48.92,84,100,2.19,AU,1719529029
154,hashtrud,37.4779,47.0508,58.51,73,0,4.83,IR,1719529029
155,ocean shores,46.9737,-124.1563,63.95,81,100,11.5,US,1719529029
156,lerwick,60.1545,-1.1494,55.4,91,0,19.77,GB,1719529029
157,taltal,-25.4,-70.4833,58.17,81,100,0.69,CL,1719529029
158,o rosal,41.9354,-8.8368,68.95,92,67,11.52,ES,1719529029
159,hauterive,46.0901,3.4459,67.75,95,96,2.48,FR,1719529029
160,west island,-12.1568,96.8225,80.58,74,20,12.66,CC,1719529029
161,scottburgh,-30.2867,30.7532,60.78,87,0,5.95,ZA,1719529029
162,mahebourg,-20.4081,57.7,70.09,64,40,13.8,MU,1719529029
163,tazovsky,67.4667,78.7,57.42,92,100,10.38,RU,1719529029
164,kirakira,-10.4544,161.9205,82.96,72,100,13.69,SB,1719529030
165,saint-francois,46.4154,3.9054,67.41,95,100,2.3,FR,1719529030
166,saint-jean-de-monts,46.7833,-2.0667,62.51,87,41,10.36,FR,1719529030
167,la passe,45.5549,-0.8967,68.23,92,56,11.18,FR,1719529030
168,goroka,-6.0834,145.3873,69.64,77,96,1.48,PG,1719529030
169,pirane,-25.7324,-59.1088,57.54,81,83,4.79,AR,1719529030
170,avarua,-21.2078,-159.775,80.65,89,75,12.66,CK,1719528798
171,tarija,-21.5355,-64.7296,69.71,24,100,3.44,BO,1719528849
172,buala,-8.145,159.5921,83.79,73,75,11.12,SB,1719529030
173,weno,7.4515,151.8468,85.95,84,100,6.91,FM,1719529030
174,jayapura,-2.5333,140.7,79.99,88,94,3.02,ID,1719529030
175,gerash,27.6652,54.1371,83.14,26,0,3.62,IR,1719529031
176,george town,5.4112,100.3354,80.53,83,20,3.44,MY,1719529017
177,valderice,38.0401,12.6151,72.59,64,0,4.61,IT,1719529031
178,calvinia,-31.4707,19.776,55.71,40,0,8.55,ZA,1719529031
179,capannori,43.8747,10.5728,68.74,85,3,5.01,IT,1719529031
180,atafu village,-8.5421,-172.5159,82.99,78,39,15.19,TK,1719529031
181,yeraliyev,43.2,51.65,69.1,69,32,9.28,KZ,1719529031
182,aberystwyth,52.4155,-4.0829,57.7,86,47,24.4,GB,1719529031
183,diplo,24.4667,69.584,89.19,68,100,9.22,PK,1719529031
184,midvagur,62.0511,-7.1939,50.83,100,100,8.05,FO,1719529031
185,lakatoro,-16.0999,167.4164,80.89,68,55,13.11,VU,1719529031
186,upington,-28.4478,21.2561,56.44,37,16,9.73,ZA,1719528949
187,constantia,44.1833,28.65,63.7,69,13,5.66,RO,1719528952
188,pisco,-13.7,-76.2167,62.65,88,75,8.05,PE,1719529032
189,douglas,41.3,-96.167,75.67,74,0,11.5,US,1719528786
190,swan hill,-35.3378,143.5544,49.87,57,0,8.57,AU,1719529032
191,ginir,7.1333,40.7,57.29,87,54,10.31,ET,1719529032
192,hirara,24.8,125.2833,84.06,94,20,10.36,JP,1719529032
193,khandyga,62.6667,135.6,54.75,50,97,2.93,RU,1719529032
194,arrifes,37.7667,-25.7,66.45,77,20,12.66,PT,1719529032
195,suva,-18.1416,178.4415,72.88,100,75,4.61,FJ,1719529032
196,iqaluit,63.7506,-68.5145,47.93,57,75,11.5,CA,1719529033
197,schweizer-reneke,-27.1887,25.3293,47.44,54,1,7.72,ZA,1719529033
198,goondiwindi,-28.55,150.3167,56.68,45,0,3.24,AU,1719529033
199,ust-nera,64.5667,143.2,47.21,55,98,9.69,RU,1719529033
200,st. john's,47.5649,-52.7093,68.14,87,98,16.82,CA,1719529033
201,zhumysker,49.3333,49.4,64.78,55,60,8.86,KZ,1719529033
202,ormara,25.2088,64.6357,83.89,88,100,12.35,PK,1719529033
203,barabinsk,55.3571,78.357,63.5,94,51,7.16,RU,1719529033
204,dryden,49.7833,-92.7503,70.09,32,75,9.22,CA,1719528897
205,zhuanghe,39.7008,122.9911,72.39,63,63,3.94,CN,1719529033
206,okhotsk,59.3833,143.3,46.87,94,100,8.48,RU,1719529034
207,darnetal,49.4453,1.1514,62.04,82,40,10.36,FR,1719529034
208,vorgashor,67.5833,63.95,39.31,91,100,13.04,RU,1719529034
209,linxia chengguanzhen,35.6003,103.2064,60.01,72,100,0.49,CN,1719529034
210,san patricio,28.017,-97.5169,93.29,57,10,12.57,US,1719529034
211,ventnor,50.5948,-1.2037,58.78,72,0,4.0,GB,1719529034
212,lagoa,39.05,-27.9833,68.34,87,32,11.01,PT,1719529034
213,conception bay south,47.4999,-52.9981,67.91,89,100,18.25,CA,1719529034
214,bengkulu,-3.8004,102.2655,75.49,90,34,3.18,ID,1719529030
215,kuta,-8.7233,115.1723,78.75,94,20,8.05,ID,1719529034
216,hirado,33.3597,129.5531,73.38,94,100,15.57,JP,1719529034
217,loralai,30.3705,68.598,79.65,56,69,8.1,PK,1719529034
218,monrovia,6.3005,-10.7969,78.57,87,100,10.76,LR,1719528875
219,nadym,65.5333,72.5167,50.0,72,63,10.76,RU,1719529035
220,chonchi,-42.6128,-73.8092,43.81,83,67,7.34,CL,1719528807
221,madimba,-10.4,40.3333,72.99,83,2,10.78,TZ,1719529035
222,northam,51.0333,-4.2167,56.61,85,0,19.57,GB,1719529035
223,ritchie,-29.038,24.6028,45.61,50,0,9.31,ZA,1719529035
224,altai,46.3722,96.2583,56.16,59,90,4.74,MN,1719529035
225,puerto penasco,31.3167,-113.5333,85.91,68,100,11.99,MX,1719529035
226,olyokminsk,60.3736,120.4264,60.6,71,92,1.61,RU,1719529035
227,kodiak,57.79,-152.4072,47.71,100,100,11.5,US,1719529035
228,lichinga,-13.3128,35.2406,58.14,71,100,6.22,MZ,1719529036
229,mili,6.0815,171.735,83.7,77,81,14.7,MH,1719529036
230,bryne,58.7354,5.6477,64.94,90,100,13.8,NO,1719529036
231,rio gallegos,-51.6226,-69.2181,28.45,93,40,4.61,AR,1719528859
232,mirny,62.5353,113.9611,64.53,76,100,3.49,RU,1719529036
233,ostersund,63.1792,14.6357,65.61,77,20,11.5,SE,1719529036
234,nelson,-41.2833,173.2833,46.29,90,75,1.99,NZ,1719529036
235,bethanie,-26.4833,17.15,57.07,43,0,14.65,NA,1719529036
236,izhevsk,56.85,53.2333,51.13,94,88,6.55,RU,1719529037
237,boa esperanca,-21.09,-45.5658,68.25,49,63,3.29,BR,1719529037
238,hammerfest,70.6634,23.6821,46.85,81,14,6.91,NO,1719528809
239,remire-montjoly,4.9167,-52.2667,80.64,83,0,3.44,GF,1719529037
240,makar'yev,57.8797,43.8069,53.73,95,65,3.89,RU,1719529037
241,cochrane,51.1834,-114.4687,56.53,72,100,12.66,CA,1719529037
242,kyzyl,51.7,94.45,68.14,55,21,3.31,RU,1719529037
243,san antonio de pale,-1.4014,5.6325,74.59,91,44,8.97,GQ,1719529037
244,shetpe,44.1667,52.1167,64.8,64,35,14.18,KZ,1719529037
245,polovinnoye,54.7914,65.9864,59.29,93,100,4.74,RU,1719529037
246,lyskovo,56.0328,45.0422,55.09,91,83,5.73,RU,1719529038
247,malango,-2.9627,119.9001,68.29,83,62,1.92,ID,1719529038
248,maloye ganyushkino,46.6,49.2667,66.65,48,9,11.63,KZ,1719529038
249,sakaiminato,35.55,133.2333,71.58,100,75,2.3,JP,1719529038
250,port alfred,-33.5906,26.891,62.85,78,0,11.1,ZA,1719528849
251,grande prairie,55.1667,-118.8027,55.58,82,100,21.85,CA,1719528887
252,kadoma,34.7333,135.5833,75.18,94,75,8.05,JP,1719529038
253,fort mcmurray,56.7268,-111.381,78.31,22,0,13.8,CA,1719529038
254,puerto deseado,-47.7503,-65.8938,34.74,71,95,19.08,AR,1719529038
255,cabo san lucas,22.8909,-109.9124,91.62,67,14,18.66,MX,1719529038
256,taiyuan,37.8694,112.5603,71.46,40,0,2.24,CN,1719529038
257,paso de carrasco,-34.8603,-56.0522,54.05,87,0,0.0,UY,1719529039
258,tevriz,57.509,72.4042,59.41,95,100,1.05,RU,1719529039
259,sovetskaya gavan',48.9723,140.2878,71.17,62,8,7.0,RU,1719529039
260,valparaiso,-33.0393,-71.6273,62.24,80,0,13.8,CL,1719529020
261,salekhard,66.53,66.6019,45.72,85,100,14.05,RU,1719529039
262,mongu,-15.2484,23.1274,53.26,64,0,6.4,ZM,1719529039
263,robertsport,6.7533,-11.3686,78.12,87,97,11.63,LR,1719529039
264,narrabri,-30.3167,149.7833,52.92,48,0,5.32,AU,1719529039
265,vadso,70.0744,29.7487,54.48,76,0,4.61,NO,1719529039
266,happy valley-goose bay,53.3168,-60.3315,44.91,93,100,14.97,CA,1719528914
267,lata,40.1629,-8.3327,68.92,99,65,1.34,PT,1719529040
268,cidreira,-30.1811,-50.2056,55.78,78,21,7.65,BR,1719529040
269,lorengau,-2.0226,147.2712,83.03,80,81,7.56,PG,1719529040
270,red hill,33.9996,-79.2581,82.58,88,100,11.77,US,1719529040
271,sumbawa besar,-8.5,117.4333,74.26,88,63,3.2,ID,1719529040
272,ayancik,41.9447,34.5861,69.53,56,0,8.75,TR,1719529040
273,mlimba,-8.8,35.8167,68.02,70,46,3.31,TZ,1719529040
274,kamloops,50.6665,-120.3192,67.19,60,100,16.11,CA,1719529040
275,guerrero negro,27.9769,-114.0611,71.29,64,2,17.27,MX,1719528797
276,alesund,62.4723,6.1549,64.33,84,75,7.09,NO,1719529040
277,nuuk,64.1835,-51.7216,38.01,100,100,24.16,GL,1719529040
278,susuman,62.7833,148.1667,50.31,49,82,12.03,RU,1719529041
279,la'ie,21.6477,-157.9253,84.16,70,20,5.99,US,1719528979
280,rio grande,-32.035,-52.0986,57.31,83,54,12.57,BR,1719528970
281,goba,7.0167,39.9833,49.32,85,91,5.32,ET,1719529041
282,hawaiian paradise park,19.5933,-154.9731,83.71,66,20,11.5,US,1719529041
283,polyarnyy,69.1989,33.4478,47.55,79,4,7.16,RU,1719529041
284,ales,44.1333,4.0833,72.7,85,38,3.71,FR,1719529041
285,pasighat,28.0667,95.3333,76.48,100,100,2.51,IN,1719529041
286,diamantino,-14.4086,-56.4461,73.29,42,6,0.87,BR,1719529041
287,huarmey,-10.0681,-78.1522,66.7,82,37,9.15,PE,1719529041
288,reguiba,33.5639,6.7033,107.65,9,20,6.91,DZ,1719529041
289,an nuhud,12.7,28.4333,81.14,60,100,20.74,SD,1719529042
290,asosa,10.0667,34.5333,61.38,96,100,4.05,ET,1719529042
291,hilo,19.7297,-155.09,83.93,70,20,11.5,US,1719528760
292,greencastle,39.6445,-86.8647,81.9,58,0,8.05,US,1719529042
293,howrah,22.5892,88.3103,82.4,94,40,3.44,IN,1719529042
294,jiazi,22.8779,116.067,82.72,85,100,2.35,CN,1719529042
295,manati,18.4275,-66.4921,85.89,85,79,11.34,PR,1719529042
296,benghazi,32.1167,20.0667,76.8,83,0,12.64,LY,1719528846
297,seydi,39.4816,62.9137,77.83,46,44,22.77,TM,1719529042
298,kuragino,53.8975,92.6725,66.22,92,3,2.21,RU,1719529043
299,rakops,-21.0167,24.3333,58.87,71,100,13.42,BW,1719529043
300,cannonvale,-20.2833,148.7,70.99,85,71,7.07,AU,1719529043
301,lucapa,-8.4192,20.7447,63.3,40,57,2.82,AO,1719529043
302,acton vale,45.6501,-72.5658,64.54,63,62,12.3,CA,1719529043
303,nova vicosa,-17.8919,-39.3719,73.26,87,16,8.61,BR,1719529043
304,santyoku,37.4406,129.1708,73.96,65,56,2.89,KR,1719529043
305,figline valdarno,43.6195,11.4693,67.33,90,3,1.99,IT,1719529043
306,glace bay,46.1969,-59.957,65.89,94,75,11.5,CA,1719529043
307,panna,24.7167,80.2,88.45,60,94,6.35,IN,1719529043
308,kangding,30.0513,101.9603,58.1,95,100,6.91,CN,1719529044
309,buka,40.8108,69.1986,82.67,33,50,5.73,UZ,1719529044
310,loon-plage,50.9965,2.2177,59.11,82,44,13.0,FR,1719529044
311,funafuti,-8.5243,179.1942,84.45,76,100,17.43,TV,1719529044
312,lloret de mar,41.6999,2.8457,75.61,68,92,3.53,ES,1719529044
313,pathein,16.7833,94.7333,78.3,94,80,4.9,MM,1719529044
314,alo,7.4178,6.7371,76.39,91,71,3.8,NG,1719529044
315,ijuin,31.6167,130.4,75.31,95,100,1.68,JP,1719529044
316,nouadhibou,20.931,-17.0347,75.18,60,0,19.57,MR,1719529044
317,kapuskasing,49.4169,-82.4331,60.89,72,75,3.44,CA,1719528902
318,ibotirama,-12.1853,-43.2206,76.03,37,4,3.11,BR,1719529044
319,nova sintra,14.8667,-24.7167,74.08,81,0,19.66,CV,1719528802
320,sapele,5.8941,5.6767,75.85,92,75,3.4,NG,1719529045
321,nieuw amsterdam,5.8833,-55.0833,78.06,85,51,5.64,SR,1719529045
322,brookings,44.3114,-96.7984,69.1,95,100,16.11,US,1719529045
323,tot'ma,59.9747,42.7642,56.34,75,98,3.69,RU,1719529045
324,linjiang,41.8069,126.9078,65.21,85,92,0.63,CN,1719529045
325,kayangel,8.0823,134.7173,84.63,76,100,17.6,PW,1719529045
326,vernon,50.2581,-119.2691,74.73,28,96,4.61,CA,1719528765
327,ghadamis,30.1337,9.5007,95.54,13,0,11.16,LY,1719529045
328,xinyu,27.8043,114.9334,73.13,99,100,3.13,CN,1719529045
329,baymak,52.5933,58.3225,52.99,95,100,18.01,RU,1719529045
330,beloyarskiy,63.7119,66.6722,47.57,94,100,7.09,RU,1719529045
331,turochak,52.2576,87.1224,63.64,96,0,1.57,RU,1719529046
332,machico,32.7,-16.7667,68.63,75,20,10.36,PT,1719529046
333,kavaratti,10.5669,72.642,81.21,85,100,16.51,IN,1719529046
334,ikedacho,34.0167,133.8,67.23,97,100,2.44,JP,1719529046
335,mukalla,14.5425,49.1242,87.75,60,83,8.81,YE,1719528907
336,waddan,29.1614,16.139,83.77,24,0,5.39,LY,1719529046
337,topeka,39.0483,-95.678,87.89,52,0,13.8,US,1719529046
338,romorantin-lanthenay,47.4167,1.8333,68.97,88,0,0.0,FR,1719529046
339,hede,33.7681,120.2517,73.89,81,77,2.91,CN,1719529046
340,laojunmiao,39.8333,97.7333,69.03,35,53,4.83,CN,1719529047
341,arkalyk,50.2486,66.9114,75.4,49,100,20.76,KZ,1719529047
342,nar'yan-mar,67.6713,53.087,40.64,85,59,7.78,RU,1719529047
343,birobidzhan,48.8,132.95,70.43,86,80,9.57,RU,1719529047
344,prado,-17.3411,-39.2208,74.5,84,12,9.93,BR,1719529047
345,labytnangi,66.6572,66.4183,46.56,81,100,12.01,RU,1719529047
346,kaa-khem,51.6833,94.7333,67.42,55,3,3.27,RU,1719529047
347,wewak,-3.5534,143.6268,79.34,86,100,4.23,PG,1719529047
348,dampit,-8.2116,112.7493,71.29,99,75,1.97,ID,1719529048
349,karakocan,38.9558,40.0386,59.65,51,0,6.78,TR,1719528911
350,paraty,-23.2178,-44.7131,69.15,97,99,0.72,BR,1719529048
351,plettenberg bay,-34.0527,23.3716,62.65,45,0,5.68,ZA,1719529048
352,paracatu,-17.2222,-46.8747,69.12,46,81,2.44,BR,1719529048
353,petropavlovsk-kamchatsky,53.0452,158.6483,57.79,58,0,6.71,RU,1719529048
354,batang,-6.4846,110.7083,78.48,86,65,4.41,ID,1719529048
355,namibe,-15.1961,12.1522,68.68,85,0,6.96,AO,1719529048
356,tynda,55.1667,124.7167,62.08,57,76,4.61,RU,1719528813
357,bikenibeu village,1.3673,173.1241,87.76,70,75,8.05,KI,1719529048
358,thompson,55.7435,-97.8558,62.76,45,40,12.66,CA,1719529049
359,san fernando,15.0286,120.6898,78.53,81,100,1.86,PH,1719529049
360,urengoy,65.9667,78.3667,62.2,88,61,9.42,RU,1719529049
361,bucerias,20.75,-105.3333,81.99,77,40,8.75,MX,1719529049
362,yarim,14.298,44.3779,63.1,53,86,1.68,YE,1719529049
363,el calafate,-50.3408,-72.2768,24.31,81,30,1.52,AR,1719529049
364,konarka,19.9,86.1167,81.0,81,97,4.85,IN,1719529049
365,sinanpasa,38.7444,30.2428,66.0,46,0,1.74,TR,1719529049
366,patacamaya,-17.2333,-67.9167,51.21,31,68,2.84,BO,1719529049
367,cuyo,10.8525,121.0086,83.8,72,28,6.02,PH,1719529049
368,alice springs,-23.7,133.8833,44.15,76,0,1.14,AU,1719528802
369,gorno-altaysk,51.9561,85.955,63.59,95,0,4.0,RU,1719529050
370,al marsa,36.8782,10.3247,78.69,53,20,10.36,TN,1719529050
371,roma,43.2128,-75.4557,68.83,48,0,16.11,US,1719529050
372,nsanje,-16.92,35.262,62.53,98,34,4.25,MW,1719529050
373,yamada,39.4667,141.95,73.31,51,100,1.74,JP,1719529050
374,nasice,45.4886,18.0878,69.55,92,59,4.21,HR,1719529050
375,kapa'a,22.0752,-159.319,82.72,72,75,12.66,US,1719529050
376,gazli,40.1333,63.45,78.1,49,29,24.36,UZ,1719529050
377,nefta,33.8731,7.8777,91.65,31,0,10.22,TN,1719529050
378,sumbe,-11.2061,13.8437,69.49,89,3,6.64,AO,1719529050
379,dolores,-36.3132,-57.6792,50.32,65,99,7.54,AR,1719529038
380,klyuchi,52.2667,79.1667,71.85,67,6,1.9,RU,1719529051
381,sandnessjoen,66.0217,12.6316,72.12,74,83,18.03,NO,1719529051
382,tual,-5.6667,132.75,79.3,89,58,14.18,ID,1719529051
383,al kharijah,25.4514,30.5464,83.52,17,11,5.55,EG,1719528811
384,north bend,43.4065,-124.2243,73.24,72,40,14.97,US,1719529051
385,petrovskaya,45.4314,37.955,63.77,76,6,3.27,RU,1719529051
386,sampacho,-33.3839,-64.7221,54.59,35,46,7.07,AR,1719529051
387,newman,37.3138,-121.0208,91.63,9,0,2.53,US,1719528974
388,ancud,-41.8697,-73.8203,45.46,75,26,10.42,CL,1719528790
389,yuzhno-kurilsk,44.0306,145.8556,61.43,76,14,4.43,RU,1719529051
390,harstad,68.799,16.5293,52.99,75,71,11.99,NO,1719529052
391,coquimbo,-29.9533,-71.3436,55.13,94,100,5.75,CL,1719528819
392,tofol,5.3248,163.0078,87.58,70,75,3.44,FM,1719529052
393,mocorito,25.4833,-107.9167,86.11,64,96,1.86,MX,1719529052
394,chibougamau,49.9168,-74.3659,47.82,93,100,6.91,CA,1719529052
395,fada,9.5667,8.3,70.43,96,96,3.87,NG,1719529052
396,callao,-12.0667,-77.15,65.43,88,100,9.22,PE,1719529052
397,purificacion,3.8587,-74.9313,80.08,67,79,2.53,CO,1719529052
398,salalah,17.0151,54.0924,80.76,91,100,6.6,OM,1719529052
399,camocim,-2.9022,-40.8411,79.41,83,35,15.08,BR,1719529053
400,kill devil hills,36.0307,-75.676,75.22,91,0,5.75,US,1719529053
401,barrouallie,13.2333,-61.2667,82.02,79,75,12.66,VC,1719529053
402,gamba,-2.65,10.0,71.42,95,22,4.81,GA,1719529053
403,kingscliff,-28.2667,153.5667,66.76,82,44,9.22,AU,1719529053
404,sur,22.5667,59.5289,88.61,58,77,6.93,OM,1719529053
405,inari,68.906,27.0288,52.0,80,62,3.13,FI,1719528772
406,ciudad lazaro cardenas,17.9583,-102.2,82.94,69,33,13.0,MX,1719529053
407,palu,-0.8917,119.8707,75.6,95,90,3.94,ID,1719528922
408,colonia,50.9333,6.95,71.94,85,73,9.31,DE,1719529053
409,al jawf,29.5,38.75,84.4,20,0,9.89,SA,1719529054
410,saudarkrokur,65.7461,-19.6394,42.76,95,85,14.63,IS,1719529054
411,aginskoye,51.1,114.53,60.53,89,100,5.66,RU,1719529054
412,mitu,1.1983,-70.1733,73.31,96,65,2.68,CO,1719529054
413,inongo,-1.95,18.2667,71.46,47,35,4.5,CD,1719529054
414,sao felix do xingu,-6.6447,-51.995,81.5,45,20,1.48,BR,1719529054
415,alaghsas,17.0187,8.0168,91.08,12,2,4.92,NE,1719529054
416,bella vista,36.4295,-94.2316,91.92,41,0,9.22,US,1719528857
417,jumla,29.2747,82.1838,58.21,90,83,1.01,NP,1719529054
418,ulubey,40.8721,37.7588,54.01,90,0,5.77,TR,1719529054
419,ajdabiya,30.7554,20.2263,74.88,86,0,12.35,LY,1719529055
420,kenai,60.5544,-151.2583,60.89,74,100,10.36,US,1719529055
421,mangai,-4.05,19.5333,68.32,33,14,2.51,CD,1719529055
422,dolbeau-mistassini,48.8763,-72.212,57.85,81,99,15.43,CA,1719529055
423,tiberias,32.7922,35.5312,82.36,86,0,3.24,IL,1719529055
424,flekkefjord,58.2971,6.6607,64.94,98,99,5.37,NO,1719529055
425,dongola,19.1667,30.4833,91.62,9,66,10.6,SD,1719529055
426,grootfontein,-19.5667,18.1167,42.37,65,14,0.0,NA,1719528910
427,rahimatpur,17.6,74.2,72.77,87,100,18.57,IN,1719529055
428,cascais,38.6979,-9.4215,66.94,92,83,15.01,PT,1719529055
429,inyonga,-6.7167,32.0667,61.36,54,6,5.97,TZ,1719529056
430,taulaga,-11.0553,-171.0883,83.03,80,90,19.86,AS,1719529056
431,sanming,26.2486,117.6186,75.97,95,98,1.77,CN,1719529056
432,igarka,67.4667,86.5833,62.6,90,68,13.89,RU,1719529056
433,champerico,14.3,-91.9167,90.14,81,100,10.47,GT,1719529056
434,mangrol,21.1167,70.1167,84.11,80,100,18.37,IN,1719529056
435,ifanadiana,-21.3,47.6333,57.97,89,98,1.01,MG,1719529056
436,cruzeiro do sul,-29.5128,-51.9853,58.08,83,17,4.79,BR,1719529056
437,aykhal,66.0,111.5,68.68,45,100,4.59,RU,1719529056
438,pangoa,-12.1167,-73.0,71.01,91,20,0.29,PE,1719529056
439,berdyansk,46.7503,36.7944,69.64,74,23,7.63,UA,1719529056
440,leiyang,26.4024,112.8591,77.31,93,100,5.61,CN,1719529057
441,maxixe,-23.8597,35.3472,67.03,79,42,8.1,MZ,1719528909
442,weining,26.85,104.2333,62.28,95,100,6.82,CN,1719529057
443,ust'-kulom,61.6864,53.6902,45.55,98,39,4.74,RU,1719529057
444,puerto gaitan,4.3133,-72.0816,76.28,86,97,6.89,CO,1719529057
445,theodore,30.5477,-88.1753,90.16,68,75,9.22,US,1719529057
446,hadibu,12.65,54.0333,80.53,79,97,20.33,YE,1719529058
447,flin flon,54.7682,-101.865,71.44,43,100,8.05,CA,1719529058
448,verdal,63.7933,11.4817,75.24,54,53,8.88,NO,1719529058
449,taos,36.4072,-105.5731,73.45,54,20,10.36,US,1719529058
450,holmsund,63.706,20.3641,57.94,76,0,2.3,SE,1719529058
451,juiz de fora,-21.7642,-43.3503,65.86,72,68,1.36,BR,1719529058
452,la sierpe,2.8518,-77.6155,76.93,90,91,2.24,CO,1719529058
453,ushibukamachi,32.1906,130.0228,73.6,97,100,13.13,JP,1719529058
454,chipinge,-20.1883,32.6236,52.68,92,100,7.29,ZW,1719529058
455,holualoa,19.6228,-155.9522,75.56,82,27,7.72,US,1719529059
456,luau,-10.7073,22.2247,58.82,47,43,5.1,AO,1719529059
457,borogontsy,62.6683,131.1683,53.13,40,62,7.92,RU,1719529059
458,murzuq,25.9155,13.9184,89.13,20,0,14.47,LY,1719529059
459,tamandare,-8.7597,-35.1047,75.54,80,14,5.1,BR,1719529059
460,bonthe,7.5264,-12.505,78.66,85,92,6.04,SL,1719529059
461,saint-malo,48.5,-1.8333,57.54,78,56,7.96,FR,1719529059
462,luorong,24.4058,109.6086,77.45,89,95,6.35,CN,1719529059
463,sinabang,2.4803,96.3801,79.95,82,99,2.01,ID,1719529059
464,ulladulla,-35.35,150.4667,51.13,66,3,3.76,AU,1719529059
465,guayaramerin,-10.8368,-65.3614,82.89,45,74,1.86,BO,1719529060
466,pauini,-7.7136,-66.9764,83.44,49,35,2.51,BR,1719529060
467,naze,28.3667,129.4833,79.72,82,95,8.63,JP,1719529060
468,barra de santo antonio,-9.4047,-35.5072,74.48,79,5,4.72,BR,1719529060
469,mandaguacu,-23.3472,-52.0953,65.8,72,0,3.44,BR,1719529060
470,huilong,31.8111,121.655,74.14,90,100,4.74,CN,1719529060
471,wajir,1.7471,40.0573,74.98,62,46,16.69,KE,1719529060
472,robore,-18.3333,-59.75,77.09,69,11,0.0,BO,1719529060
473,camana,-16.6228,-72.7111,62.78,83,35,5.08,PE,1719529060
474,qiryat shemona,33.2073,35.5721,77.68,71,1,5.95,IL,1719529060
475,magadan,59.5667,150.8,48.27,93,100,5.93,RU,1719529060
476,aripuana,-9.1667,-60.6333,79.27,43,7,0.89,BR,1719529060
477,valdosta,30.8327,-83.2785,84.11,83,20,5.75,US,1719529061
478,pangody,65.85,74.4859,53.85,75,88,10.25,RU,1719529061
479,castillos,-34.1667,-53.8333,51.96,81,11,12.46,UY,1719529061
480,beacon square,28.2086,-82.7554,89.22,76,98,8.01,US,1719529061
481,akureyri,65.6835,-18.0878,46.33,81,75,16.11,IS,1719528808
482,sirte,31.2089,16.5887,76.77,72,0,4.65,LY,1719529061
483,hotan,37.0997,79.9269,83.35,18,52,7.72,CN,1719529061
484,rodolfo sanchez taboada,31.7167,-116.5667,73.09,65,19,5.01,MX,1719529062
485,fabens,31.5023,-106.1586,97.92,27,100,4.88,US,1719529062
486,kiama,-34.6833,150.8667,57.58,69,7,3.0,AU,1719529062
487,belo horizonte,-19.9208,-43.9378,74.75,44,12,1.97,BR,1719528885
488,malpils,57.0111,24.9631,65.89,92,0,5.39,LV,1719529062
489,timbuktu,16.7735,-3.0074,95.38,27,98,7.96,ML,1719529062
490,rodez,44.5,2.5833,71.28,83,0,2.3,FR,1719529062
491,osakarovka,50.565,72.5692,70.72,58,99,14.97,KZ,1719529062
492,ribas do rio pardo,-20.4431,-53.7592,71.4,42,6,4.18,BR,1719529062
493,i-n-salah,27.1935,2.4607,100.18,9,18,3.13,DZ,1719529062
494,codrington,-38.2667,141.9667,51.04,65,100,17.49,AU,1719528810
495,ore,6.7457,4.8775,73.92,95,34,1.7,NG,1719529063
496,villaquilambre,42.6469,-5.5584,68.29,68,0,6.91,ES,1719529063
497,susanville,40.4163,-120.653,78.8,13,62,15.3,US,1719529063
498,argo,37.6333,22.7333,74.79,56,0,3.6,GR,1719529063
499,bodaybo,57.8506,114.1933,64.8,61,98,2.17,RU,1719529063
500,kerikeri,-35.2268,173.9474,57.9,82,6,1.99,NZ,1719529063
501,aldona,15.5833,73.8667,82.18,87,99,14.79,IN,1719529063
502,zhanaozen,43.3,52.8,66.07,62,42,11.88,KZ,1719529063
503,belel,7.05,14.4333,61.14,96,100,2.46,CM,1719529063
504,dakhla,23.6848,-15.958,66.31,85,0,23.09,EH,1719529064
505,kaele,10.1092,14.4508,77.76,79,100,16.13,CM,1719529064
506,trincomalee,8.5711,81.2335,81.07,79,100,20.6,LK,1719529064
507,taber,49.8167,-112.1518,67.84,59,98,17.27,CA,1719529064
508,duragan,41.4158,35.0544,59.22,65,0,2.39,TR,1719529064
509,tagta,41.6504,59.9164,66.15,77,0,9.22,TM,1719529064
510,guarapari,-20.6667,-40.4975,71.98,94,83,4.5,BR,1719529064
511,paita,-5.0892,-81.1144,66.2,85,66,15.1,PE,1719529064
512,aldinga beach,-35.2793,138.4604,58.66,60,68,20.45,AU,1719529064
513,anastacio,-20.4836,-55.8069,72.77,50,23,3.94,BR,1719529064
514,trondheim,63.4305,10.3951,75.25,52,42,4.0,NO,1719529065
515,stornoway,58.2093,-6.3865,53.56,95,100,1.14,GB,1719529065
516,el bauga,18.262,33.9081,91.31,10,80,10.94,SD,1719529065
517,drayton valley,53.2168,-114.9854,51.73,99,100,14.7,CA,1719529065
518,richmond,37.5538,-77.4603,88.21,48,20,6.91,US,1719528841
519,strathmore,51.0501,-113.3852,58.19,82,100,9.22,CA,1719529065
520,zag,46.9441,99.165,54.5,67,45,3.53,MN,1719529065
521,pujili,-0.95,-78.6833,57.49,67,40,14.97,EC,1719529065
522,barcelos,41.5388,-8.6151,64.69,95,30,4.23,PT,1719529021
523,candelaria,13.9311,121.4233,79.92,86,86,3.38,PH,1719529066
524,muroto-misakicho,33.2833,134.15,76.32,92,100,23.13,JP,1719529066
525,fortuna,40.5982,-124.1573,66.92,69,100,16.11,US,1719529066
526,launceston,-41.45,147.1667,47.16,93,100,10.36,AU,1719529066
527,feuchtwangen,49.1667,10.3333,69.87,95,16,5.64,DE,1719529066
528,pacific grove,36.6177,-121.9166,75.54,71,0,10.36,US,1719529066
529,vilyuysk,63.7553,121.6247,56.53,48,2,7.02,RU,1719529066
530,tsiombe,-25.3,45.4833,64.33,66,0,11.05,MG,1719528803
531,lampasas,31.2168,-98.2336,99.28,48,43,10.22,US,1719529066
532,freetown,8.484,-13.2299,78.1,88,100,5.82,SL,1719529066
533,itacare,-14.2775,-38.9967,73.38,85,27,5.55,BR,1719529066
534,el granada,37.5027,-122.4694,78.91,58,20,20.71,US,1719528954
535,formosa do rio preto,-11.0483,-45.1931,73.08,45,15,1.5,BR,1719529067
536,mahdia,35.5047,11.0622,76.95,72,4,7.14,TN,1719529067
537,sabang,5.8933,95.3214,84.02,71,98,2.35,ID,1719529067
538,sechura,-5.5569,-80.8222,71.24,68,67,16.04,PE,1719529067
539,bastogne,50.0035,5.7184,65.12,74,91,7.96,BE,1719529067
540,bakanas,44.8081,76.2772,83.77,22,17,10.42,KZ,1719529067
541,emerald,-23.5333,148.1667,62.35,100,100,5.23,AU,1719529067
542,grand falls-windsor,48.9332,-55.6649,69.51,84,100,8.01,CA,1719529067
543,claveria,18.6074,121.0832,84.18,75,100,2.98,PH,1719529067
544,sokoni,-6.4333,39.55,78.58,75,31,18.77,TZ,1719529068
545,selebi-phikwe,-21.979,27.8498,55.6,73,73,8.37,BW,1719529068
546,gasa,31.5,34.4667,77.81,87,0,4.54,PS,1719529068
547,dawei,14.0833,98.2,76.51,91,96,2.71,MM,1719529068
548,pavlovka,52.6897,47.1405,51.94,93,83,8.81,RU,1719529068
549,camacupa,-12.0167,17.4833,53.06,47,0,2.73,AO,1719529068
550,timimoun,29.2639,0.231,102.58,9,0,3.44,DZ,1719529068
551,filingue,14.3521,3.3168,92.68,40,82,17.94,NE,1719529068
552,jinchang,38.4953,102.1739,72.48,43,100,5.12,CN,1719529068
553,praia,14.9215,-23.5087,75.74,69,40,12.66,CV,1719529069
