City_ID,City,Lat,Lng,Max Temp,Humidity,Cloudiness,Wind Speed,Country,Date
0,port-aux-francais,-49.35,70.2167,33.39,55,65,21.34,TF,1719962499
1,edinburgh of the seven seas,-37.0676,-12.3116,58.73,86,79,37.33,SH,1719962499
2,malabar,-33.9667,151.25,55.85,87,20,19.57,AU,1719962499
3,isafjordur,66.0755,-23.124,43.9,79,95,6.93,IS,1719962410
4,lebu,-37.6167,-73.65,48.2,78,92,10.38,CL,1719962499
5,adamstown,-25.066,-130.1015,68.32,58,69,13.44,PN,1719962499
6,geraldton,-28.7667,114.6,50.41,81,0,6.91,AU,1719962499
7,bongaree,-27.0797,153.1586,59.05,82,99,18.23,AU,1719962499
8,ribeira grande,38.5167,-28.7,73.78,87,18,4.0,PT,1719962499
9,kikvidze,50.7416,43.0518,71.58,63,86,0.65,RU,1719962499
10,nizhnyaya omka,55.4338,74.9426,59.04,97,100,9.82,RU,1719962499
11,opuwo,-18.0607,13.84,54.91,30,3,3.0,NA,1719962499
12,kumasi,6.6885,-1.6244,72.1,96,85,5.59,GH,1719962500
13,blackmans bay,-43.0167,147.3167,40.53,89,1,1.01,AU,1719962500
14,kawalu,-7.3817,108.2082,72.07,96,100,1.54,ID,1719962500
15,tchintabaraden,15.8969,5.7985,86.59,50,80,17.69,NE,1719962500
16,grytviken,-54.2811,-36.5092,24.12,75,22,1.36,GS,1719962500
17,tazovsky,67.4667,78.7,46.2,66,0,8.77,RU,1719962500
18,mahibadhoo,3.7833,72.9667,83.39,76,76,8.95,MV,1719962500
19,kotel'nikovo,47.6317,43.1461,71.19,35,22,6.78,RU,1719962500
20,waitangi,-43.9535,-176.5597,47.82,97,98,11.01,NZ,1719962500
21,chonchi,-42.6128,-73.8092,40.21,90,30,4.25,CL,1719962500
22,saipan,15.1355,145.701,86.7,70,40,14.97,MP,1719962426
23,hasaki,35.7333,140.8333,75.6,94,97,11.99,JP,1719962500
24,gadzhiyevo,69.2551,33.3362,48.38,97,100,6.26,RU,1719962500
25,fort wellington,6.4,-57.6,79.16,83,27,6.46,GY,1719962500
26,invercargill,-46.4,168.35,44.02,98,100,0.58,NZ,1719962501
27,papatowai,-46.5619,169.4708,45.32,80,94,6.98,NZ,1719962501
28,carnarvon,-24.8667,113.6333,60.69,54,0,21.32,AU,1719962501
29,san antonio de pale,-1.4014,5.6325,74.25,82,94,14.99,GQ,1719962501
30,voorthuizen,52.1867,5.6056,56.84,87,39,5.23,NL,1719962501
31,puerto natales,-51.7236,-72.4875,29.17,94,81,4.56,CL,1719962501
32,west island,-12.1568,96.8225,82.38,78,75,26.46,CC,1719962501
33,cidreira,-30.1811,-50.2056,54.97,80,0,7.11,BR,1719962501
34,sao joao da barra,-21.6403,-41.0511,68.09,85,11,5.68,BR,1719962501
35,tyukhtet,56.5389,89.3011,62.85,97,99,6.64,RU,1719962501
36,kapuskasing,49.4169,-82.4331,66.29,52,100,13.8,CA,1719962342
37,thompson,55.7435,-97.8558,62.76,82,100,4.61,CA,1719962501
38,saint-philippe,-21.3585,55.7679,63.99,74,41,9.48,RE,1719962501
39,aykhal,66.0,111.5,47.26,53,15,20.24,RU,1719962501
40,hirara,24.8,125.2833,87.66,84,40,9.22,JP,1719962501
41,guerrero negro,27.9769,-114.0611,71.55,64,4,17.83,MX,1719962502
42,kimbe,-5.5502,150.1429,84.16,68,90,3.33,PG,1719962502
43,chefchaouene,35.1688,-5.2636,60.37,42,0,4.9,MA,1719962502
44,kharp,66.8014,65.8081,52.23,60,88,2.59,RU,1719962502
45,lompoc,34.6391,-120.4579,76.84,67,0,12.66,US,1719962502
46,tiksi,71.6872,128.8694,40.35,73,49,8.14,RU,1719962502
47,susuman,62.7833,148.1667,59.79,71,80,0.47,RU,1719962502
48,palikir - national government center,6.9248,158.1611,88.65,74,100,9.22,FM,1719962502
49,gisborne,-38.6533,178.0042,51.53,63,9,15.12,NZ,1719962502
50,lagunas,-5.2269,-75.6753,75.79,91,72,1.7,PE,1719962502
51,georgetown,5.4112,100.3354,78.73,80,20,2.3,MY,1719962358
52,mount pearl,47.5166,-52.7813,54.32,98,100,14.97,CA,1719962502
53,yreka,41.7354,-122.6345,93.36,14,0,14.97,US,1719962502
54,raduzhny,62.0961,77.475,47.48,73,44,6.13,RU,1719962502
55,margaret river,-33.95,115.0667,45.95,82,0,7.81,AU,1719962502
56,chunian,30.964,73.9803,93.42,56,89,2.59,PK,1719962502
57,tughyl,47.7252,84.2063,63.01,66,71,7.85,KZ,1719962412
58,iskateley,67.6803,53.1512,56.93,96,100,16.55,RU,1719962503
59,stung treng,13.5259,105.9683,71.89,99,100,4.29,KH,1719962503
60,peace river,56.2501,-117.286,75.51,60,75,11.5,CA,1719962503
61,meiganga,6.5167,14.3,65.7,96,58,2.66,CM,1719962503
62,tual,-5.6667,132.75,79.0,85,90,25.37,ID,1719962503
63,olonkinbyen,70.9221,-8.7187,37.29,98,100,6.2,SJ,1719962503
64,bethel,41.3712,-73.414,78.04,59,60,4.41,US,1719962236
65,kijang,35.2442,129.2139,74.93,98,99,11.92,KR,1719962503
66,cafayate,-26.073,-65.9761,62.08,18,0,2.66,AR,1719962503
67,haiku-pauwela,20.9219,-156.3051,83.21,60,40,18.41,US,1719962503
68,yellowknife,62.456,-114.3525,72.12,45,75,9.22,CA,1719962440
69,hermanus,-34.4187,19.2345,56.55,77,92,6.82,ZA,1719962503
70,i-n-salah,27.1935,2.4607,99.12,8,1,8.34,DZ,1719962503
71,bilibino,68.0546,166.4372,51.31,84,100,4.03,RU,1719962503
72,duong dong,10.2167,103.9667,80.6,89,40,2.3,VN,1719962504
73,bardai,11.65,7.2333,75.2,79,76,9.08,NG,1719962504
74,hawaiian paradise park,19.5933,-154.9731,82.04,68,100,11.5,US,1719962504
75,alindao,5.0267,21.2088,72.39,80,79,1.12,CF,1719962504
76,perry,37.2506,-83.1999,87.98,53,99,5.64,US,1719962504
77,petropavlovsk-kamchatsky,53.0452,158.6483,52.39,94,75,8.95,RU,1719962504
78,galesburg,40.9478,-90.3712,86.02,64,40,13.8,US,1719962504
79,constantia,44.1833,28.65,72.7,74,69,3.06,RO,1719962504
80,kodiak,57.79,-152.4072,49.51,93,100,8.05,US,1719962504
81,flying fish cove,-10.4217,105.6791,78.48,88,100,12.66,CX,1719962504
82,talnakh,69.4865,88.3972,48.24,61,95,13.06,RU,1719962504
83,port-vila,-17.7338,168.3219,82.0,61,20,5.75,VU,1719962504
84,claveria,18.6074,121.0832,83.14,74,25,5.46,PH,1719962504
85,iqaluit,63.7506,-68.5145,46.13,75,20,9.22,CA,1719962505
86,barakani,-12.1356,44.4317,75.47,71,11,9.8,KM,1719962505
87,iquique,-20.2208,-70.1431,59.04,78,29,0.85,CL,1719962403
88,vadso,70.0744,29.7487,47.28,93,100,19.57,NO,1719962505
89,angaur state,6.906,134.13,83.23,76,94,9.24,PW,1719962505
90,uturoa,-16.7333,-151.4333,78.73,73,99,23.38,PF,1719962505
91,massakory,12.996,15.7293,90.05,43,35,4.41,TD,1719962505
92,nadym,65.5333,72.5167,52.38,64,2,9.55,RU,1719962505
93,isangel,-19.55,169.2667,82.51,65,20,4.61,VU,1719962505
94,dunedin,-45.8742,170.5036,42.8,92,99,5.99,NZ,1719962505
95,sinabang,2.4803,96.3801,79.59,82,87,1.81,ID,1719962505
96,wailua homesteads,22.0669,-159.378,81.39,71,40,11.5,US,1719962505
97,klyuchi,52.2667,79.1667,59.88,75,34,4.63,RU,1719962505
98,carauari,-4.8828,-66.8958,83.14,57,85,1.92,BR,1719962505
99,tazacorte,28.629,-17.9293,70.77,91,100,19.57,ES,1719962505
100,dudinka,69.4058,86.1778,47.5,62,91,14.9,RU,1719962505
101,novouzensk,50.4592,48.1431,75.65,58,47,2.46,RU,1719962506
102,preobrazheniye,42.9019,133.9064,67.1,67,100,9.57,RU,1719962506
103,utrik,11.2278,169.8474,82.06,77,93,18.59,MH,1719962506
104,cartagena,10.3997,-75.5144,78.42,94,75,1.14,CO,1719962306
105,stanley,54.868,-1.6985,50.02,86,100,9.22,GB,1719962506
106,santa ana,33.7456,-117.8678,94.26,55,20,10.36,US,1719962506
107,apiai,-24.5094,-48.8425,55.26,63,0,2.46,BR,1719962506
108,tommot,58.9564,126.2925,80.62,58,24,3.27,RU,1719962506
109,seminole,28.7086,-81.2081,91.42,75,100,5.75,US,1719962506
110,mount gambier,-37.8333,140.7667,38.1,86,2,4.36,AU,1719962506
111,fortuna,40.5982,-124.1573,70.14,68,40,16.11,US,1719962506
112,natal,-5.795,-35.2094,75.85,88,75,8.05,BR,1719962356
113,cimitarra,6.3142,-73.9497,80.62,89,91,2.84,CO,1719962507
114,viedma,-40.8135,-62.9967,43.9,74,48,32.68,AR,1719962507
115,ponta delgada,37.7333,-25.6667,70.52,83,40,6.91,PT,1719962507
116,fort bragg,35.139,-79.006,85.91,42,0,8.05,US,1719962507
117,dzilam gonzalez,21.2833,-88.9333,85.48,71,50,8.68,MX,1719962507
118,ushuaia,-54.8,-68.3,31.66,69,40,4.61,AR,1719962507
119,san matias,-16.3667,-58.4,79.3,30,0,5.5,BO,1719962507
120,longyearbyen,78.2186,15.6401,51.64,62,0,0.0,SJ,1719962507
121,puerto baquerizo moreno,-0.9,-89.6,71.65,82,59,7.99,EC,1719962507
122,sandnessjoen,66.0217,12.6316,52.32,92,100,13.18,NO,1719962507
123,afaahiti,-17.75,-149.2833,82.27,71,100,19.48,PF,1719962507
124,olinda,-8.0089,-34.8553,76.73,88,75,10.36,BR,1719962507
125,bredasdorp,-34.5322,20.0403,52.03,84,100,4.54,ZA,1719962507
126,nuuk,64.1835,-51.7216,36.88,93,100,11.01,GL,1719962507
127,shahr-e babak,30.1165,55.1186,81.18,30,78,5.19,IR,1719962507
128,whitehorse,60.7161,-135.0538,59.77,54,100,8.05,CA,1719962507
129,alice springs,-23.7,133.8833,36.95,93,100,8.05,AU,1719962508
130,bakanas,44.8081,76.2772,69.39,39,33,7.34,KZ,1719962508
131,tralee,52.2704,-9.7026,53.89,88,100,7.52,IE,1719962508
132,turpan,42.9333,89.1667,78.3,57,67,7.34,CN,1719962508
133,jamestown,42.097,-79.2353,77.45,50,0,8.05,US,1719962397
134,hithadhoo,-0.6,73.0833,82.83,76,96,3.71,MV,1719962508
135,emmett,43.8735,-116.4993,87.17,17,0,10.47,US,1719962508
136,fruita,39.1589,-108.729,91.92,14,0,8.05,US,1719962508
137,ha'il,27.5219,41.6907,84.22,21,0,4.61,SA,1719962508
138,college,64.8569,-147.8028,74.44,54,75,13.8,US,1719962508
139,carbondale,37.7273,-89.2168,88.09,44,0,11.5,US,1719962209
140,eldoret,0.5204,35.2699,55.09,85,64,2.57,KE,1719962508
141,lumphat,13.4878,106.9816,72.88,98,100,2.66,KH,1719962508
142,ust'-uda,54.1742,103.0304,67.95,88,99,3.09,RU,1719962508
143,egilsstadir,65.2653,-14.3948,49.91,76,0,3.44,IS,1719962508
144,zimapan,20.75,-99.35,69.8,69,53,11.18,MX,1719962509
145,praia da vitoria,38.7333,-27.0667,75.76,94,75,8.03,PT,1719962509
146,enewetak,11.3474,162.3373,83.07,80,100,20.15,MH,1719962468
147,undurkhaan,47.3194,110.6556,68.56,46,100,4.61,MN,1719962509
148,nuevitas,21.5453,-77.2644,83.14,79,0,12.06,CU,1719962509
149,albany,42.6001,-73.9662,78.93,58,85,1.36,US,1719962263
150,udachny,66.4167,112.4,46.85,55,1,25.93,RU,1719962509
151,ponnani,10.767,75.9252,79.92,84,100,4.38,IN,1719962509
152,touros,-5.1989,-35.4608,75.02,91,54,10.83,BR,1719962509
153,tierralta,8.1736,-76.0592,81.12,84,70,5.08,CO,1719962509
154,san jeronimo de juarez,17.1333,-100.4667,81.12,83,100,9.78,MX,1719962509
155,mahavelona,-17.6848,49.5087,66.18,85,52,9.22,MG,1719962468
156,el bauga,18.262,33.9081,93.72,28,28,4.88,SD,1719962509
157,vila velha,-20.3297,-40.2925,71.55,88,100,2.3,BR,1719962509
158,lianshan,40.7643,120.8533,65.53,81,100,14.54,CN,1719962509
159,marsh harbour,26.5412,-77.0636,83.91,76,11,11.9,BS,1719962510
160,tongouson,5.0214,120.1328,81.95,79,100,10.49,PH,1719962510
161,remire-montjoly,4.9167,-52.2667,77.04,100,0,2.3,GF,1719962510
162,nizhniy kuranakh,58.8353,125.4869,79.54,59,8,4.07,RU,1719962510
163,mahina,-17.5065,-149.489,83.97,58,75,5.75,PF,1719962510
164,butzow,53.85,11.9833,59.05,91,99,10.02,DE,1719962510
165,taro,-8.3862,115.28,73.4,100,100,0.69,ID,1719962510
166,hadithah,34.1397,42.3781,86.79,28,0,10.18,IQ,1719962510
167,manokwari,-0.8667,134.0833,81.77,75,73,7.96,ID,1719962510
168,porto novo,6.4965,2.6036,82.22,82,100,8.46,BJ,1719962510
169,vorgashor,67.5833,63.95,49.23,63,97,8.86,RU,1719962510
170,trujillo,-8.116,-79.03,64.36,88,36,9.22,PE,1719962510
171,crane,31.3974,-102.3501,101.59,18,79,18.5,US,1719962510
172,altoona,40.5187,-78.3947,79.81,50,19,7.14,US,1719962253
173,atafu village,-8.5421,-172.5159,84.09,75,75,18.07,TK,1719962510
174,ust-nera,64.5667,143.2,59.11,62,51,2.73,RU,1719962511
175,darovskoy,58.77,47.9564,69.71,78,84,4.23,RU,1719962511
176,genhe,50.7833,121.5167,76.73,43,19,2.53,CN,1719962511
177,sur,22.5667,59.5289,92.05,47,75,9.62,OM,1719962511
178,ilulissat,69.2167,-51.1,42.82,87,75,3.44,GL,1719962511
179,ulaangom,49.9811,92.0667,69.82,56,100,7.56,MN,1719962511
180,la sarre,48.8002,-79.1996,70.48,60,98,12.5,CA,1719962507
181,puerto ayora,-0.7393,-90.3518,71.55,96,55,7.31,EC,1719962511
182,mabopane,-25.4977,28.1007,44.98,43,1,2.86,ZA,1719962280
183,shawano,44.7822,-88.609,64.89,100,100,4.61,US,1719962511
184,starodub,52.5844,32.7633,72.46,57,39,9.08,RU,1719962274
185,aksu,41.1231,80.2644,70.95,47,0,7.02,CN,1719962223
186,fale old settlement,-9.3852,-171.2468,83.44,77,22,19.73,TK,1719962511
187,howrah,22.5892,88.3103,78.8,94,100,5.75,IN,1719962511
188,sisimiut,66.9395,-53.6735,38.05,93,99,5.64,GL,1719962512
189,tezu,27.9167,96.1667,74.95,99,100,3.2,IN,1719962512
190,port mathurin,-19.6833,63.4167,71.65,64,5,19.77,MU,1719962512
191,west lafayette,40.4259,-86.9081,84.42,43,0,8.05,US,1719962345
192,shangzhi,45.2167,127.9667,64.53,76,100,6.13,CN,1719962512
193,ad dabbah,18.05,30.95,94.93,23,77,10.71,SD,1719962512
194,aasiaat,68.7098,-52.8699,36.63,95,92,2.8,GL,1719962512
195,alesund,62.4723,6.1549,53.76,79,75,17.27,NO,1719962512
196,panorama,40.5878,23.0315,70.52,74,40,13.8,GR,1719962512
197,khandyga,62.6667,135.6,70.05,46,58,1.32,RU,1719962512
198,coyutla,20.25,-97.65,89.51,86,77,6.02,MX,1719962512
199,nagato,34.3833,131.2,81.19,82,62,15.82,JP,1719962512
200,motygino,58.1831,94.7592,66.45,76,2,2.89,RU,1719962512
201,queenstown,-31.8976,26.8753,50.23,68,85,2.17,ZA,1719962261
202,st. john's,47.5649,-52.7093,55.15,99,100,14.97,CA,1719962513
203,port elizabeth,-33.918,25.5701,55.31,85,0,4.61,ZA,1719962513
204,tomatlan,19.9333,-105.25,82.83,63,92,6.93,MX,1719962513
205,ouallam,14.3188,2.0866,86.32,57,66,21.68,NE,1719962513
206,callao,-12.0667,-77.15,62.73,82,100,9.22,PE,1719962513
207,lihue,21.9789,-159.3672,81.99,68,40,11.5,US,1719962513
208,jining,35.405,116.5814,68.04,82,78,4.23,CN,1719962513
209,ardmore,34.1743,-97.1436,98.46,40,0,16.11,US,1719962401
210,alaghsas,17.0187,8.0168,85.21,50,54,9.51,NE,1719962513
211,vicuna,-30.0319,-70.7081,70.32,22,5,5.01,CL,1719962513
212,hammerfest,70.6634,23.6821,45.05,93,100,4.61,NO,1719962513
213,ust'-ilimsk,58.0006,102.6619,68.85,65,78,3.83,RU,1719962513
214,patterson,37.4716,-121.1297,105.75,6,0,10.27,US,1719962513
215,prince rupert,54.3161,-130.3201,58.69,84,20,17.27,CA,1719962514
216,la paz,-16.5,-68.15,52.57,21,3,9.22,BO,1719962514
217,carutapera,-1.195,-46.02,78.69,83,71,9.51,BR,1719962514
218,el calafate,-50.3408,-72.2768,24.01,81,12,3.09,AR,1719962514
219,djibo,14.1022,-1.6306,81.18,67,100,19.69,BF,1719962514
220,mili,6.0815,171.735,83.57,79,79,14.38,MH,1719962514
221,pacific grove,36.6177,-121.9166,82.38,67,0,8.05,US,1719962514
222,punta arenas,-53.15,-70.9167,32.11,74,100,18.41,CL,1719962514
223,kamikawa,43.84,142.7711,71.87,52,44,6.26,JP,1719962514
224,dachne,44.8833,34.9833,75.27,40,0,4.85,UA,1719962514
225,lidzbark,53.2628,19.8266,52.92,98,35,9.8,PL,1719962514
226,kill devil hills,36.0307,-75.676,76.98,80,40,12.66,US,1719962514
227,colonia,50.9333,6.95,57.85,87,75,1.14,DE,1719962421
228,bertoua,4.5833,13.6833,69.21,97,59,3.78,CM,1719962514
229,kodinsk,58.6881,99.1844,68.94,68,100,1.79,RU,1719962514
230,howard springs,-12.497,131.047,71.87,70,51,12.48,AU,1719962515
231,cill airne,52.05,-9.5167,53.87,86,100,5.91,IE,1719962515
232,leua,48.2156,18.6071,55.9,75,0,6.78,SK,1719962515
233,antonio enes,-16.2325,39.9086,72.75,72,37,7.07,MZ,1719962515
234,gillette,44.2911,-105.5022,72.52,36,75,11.99,US,1719962515
235,port lincoln,-34.7333,135.8667,49.91,67,2,8.48,AU,1719962515
236,ozu,33.5,132.55,78.42,77,99,1.59,JP,1719962515
237,chom thong,18.4174,98.6743,75.45,91,99,3.11,TH,1719962515
238,severo-yeniseyskiy,60.3725,93.0408,55.22,54,52,2.42,RU,1719962515
239,sao jose da coroa grande,-8.8978,-35.1478,75.07,84,51,11.1,BR,1719962515
240,omegna,45.8798,8.408,73.11,94,94,6.46,IT,1719962515
241,badger,64.8,-147.5333,74.35,55,75,13.8,US,1719962323
242,tarko-sale,64.9225,77.785,50.43,62,5,8.68,RU,1719962337
243,vizinga,61.0749,50.1031,66.31,97,10,5.91,RU,1719962515
244,anadyr,64.75,177.4833,61.3,67,75,6.71,RU,1719962515
245,pangody,65.85,74.4859,50.88,65,7,8.59,RU,1719962515
246,tirumullaivasal,11.2333,79.8333,81.81,85,100,12.8,IN,1719962349
247,nemuro,43.3236,145.575,63.0,71,28,9.8,JP,1719962516
248,broken hill,-31.95,141.4333,41.83,76,1,11.72,AU,1719962516
249,ola,59.5833,151.2833,56.35,70,60,2.71,RU,1719962516
250,lichtenburg,-26.152,26.1597,52.92,42,5,10.27,ZA,1719962516
251,tekkekoy,41.2117,36.46,65.95,100,20,3.44,TR,1719962516
252,bankim,6.083,11.4905,67.37,98,97,0.76,CM,1719962516
253,hell-ville,-13.4,48.2667,75.4,76,76,5.77,MG,1719962516
254,roma,43.2128,-75.4557,77.72,52,0,3.44,US,1719962516
255,boulsa,12.6675,-0.5758,80.06,70,83,3.96,BF,1719962516
256,akureyri,65.6835,-18.0878,49.93,81,100,8.05,IS,1719962516
257,castlegar,49.2998,-117.6689,74.98,30,94,7.07,CA,1719962391
258,jagna,9.6531,124.3697,77.25,85,98,2.44,PH,1719962516
259,port isabel,26.0734,-97.2086,93.29,66,0,13.8,US,1719962516
260,kannur,11.8675,75.3576,79.54,84,91,3.94,IN,1719962517
261,homer,59.6425,-151.5483,61.03,63,0,16.11,US,1719962517
262,qaqortoq,60.7167,-46.0333,36.32,93,54,6.11,GL,1719962517
263,kingston,17.997,-76.7936,87.17,68,100,3.15,JM,1719962286
264,edd,13.9297,41.6925,89.53,68,96,3.24,ER,1719962517
265,savelugu,9.6244,-0.8253,78.39,76,98,6.55,GH,1719962517
266,rouyn-noranda,48.2398,-79.0288,75.29,43,75,16.11,CA,1719962517
267,riosucio,5.4216,-75.7032,60.51,97,96,2.91,CO,1719962517
268,vilyuchinsk,52.9306,158.4028,53.87,96,100,7.18,RU,1719962517
269,banda aceh,5.5577,95.3222,79.97,79,40,10.27,ID,1719962517
270,aswan,24.0934,32.907,88.34,19,4,7.45,EG,1719962517
271,arteche,12.2645,125.4048,81.36,85,81,1.32,PH,1719962517
272,mar del plata,-38.0023,-57.5575,57.22,59,0,10.36,AR,1719962253
273,victorica,-36.2151,-65.4359,55.0,34,41,18.19,AR,1719962517
274,yinchuan,38.4681,106.2731,74.37,34,0,7.72,CN,1719962517
275,labytnangi,66.6572,66.4183,52.81,60,96,3.44,RU,1719962517
276,hamilton,39.1834,-84.5333,89.55,50,0,11.5,US,1719962518
277,kununurra,-15.7667,128.7333,69.78,46,6,13.8,AU,1719962518
278,marquette,46.5333,-87.6335,64.17,87,100,5.99,US,1719962518
279,narrabri,-30.3167,149.7833,54.09,72,78,14.81,AU,1719962518
280,camarinas,43.1311,-9.1817,62.19,86,62,19.42,ES,1719962518
281,santa cruz,-17.8,-63.1667,77.05,65,0,11.5,BO,1719962518
282,brooks,50.5834,-111.8851,75.18,37,17,6.91,CA,1719962518
283,pass christian,30.3158,-89.2475,92.12,77,20,11.5,US,1719962518
284,port saint john's,-31.6229,29.5448,64.09,86,22,7.92,ZA,1719962518
285,minas de marcona,-15.2119,-75.1103,54.75,79,0,10.09,PE,1719962518
286,nanning,22.8167,108.3167,79.25,94,76,6.67,CN,1719962518
287,novodvinsk,64.4165,40.8122,60.55,78,56,4.85,RU,1719962518
288,wamba,8.9333,8.6,74.8,86,44,1.63,NG,1719962518
289,richards bay,-28.783,32.0377,64.24,81,1,9.24,ZA,1719962518
290,malvan,16.0667,73.4667,81.88,84,92,13.56,IN,1719962519
291,kongsvinger,60.1905,11.9977,59.67,72,100,2.91,NO,1719962519
292,bada,51.392,109.8717,71.08,59,57,2.91,RU,1719962519
293,avarua,-21.2078,-159.775,80.65,69,20,13.8,CK,1719962519
294,fisterra,42.9049,-9.2629,62.02,83,70,19.6,ES,1719962519
295,puerto armuelles,8.2833,-82.8667,84.09,76,73,5.01,PA,1719962336
296,suva,-18.1416,178.4415,74.68,94,75,9.22,FJ,1719962519
297,san luis de la loma,17.2706,-100.8939,80.98,85,95,11.9,MX,1719962519
298,yantarnyy,54.8717,19.9381,57.06,83,87,15.43,RU,1719962519
299,ghanzi,-21.5667,21.7833,59.04,34,0,10.42,BW,1719962519
300,kardla,58.9978,22.7492,56.05,87,67,4.97,EE,1719962519
301,smithers,54.7804,-127.1743,73.72,25,75,5.75,CA,1719962519
302,mantua,45.1667,10.7833,74.44,95,65,7.85,IT,1719962520
303,gaspe,48.8334,-64.4819,73.62,60,20,3.44,CA,1719962520
304,sitka,57.0531,-135.33,55.29,76,100,11.5,US,1719962520
305,newman,37.3138,-121.0208,103.98,7,0,10.38,US,1719962520
306,rongelap,11.1635,166.8941,82.53,80,100,18.01,MH,1719962520
307,thenzawl,23.3167,92.75,72.93,100,100,1.95,IN,1719962520
308,kuragino,53.8975,92.6725,61.74,95,79,4.79,RU,1719962368
309,la ronge,55.1001,-105.2842,77.25,31,40,4.61,CA,1719962520
310,papao,-17.75,-149.55,83.88,72,100,22.91,PF,1719962520
311,shibganj,24.6829,88.1598,80.64,88,99,9.35,BD,1719962520
312,dalcahue,-42.3628,-73.7022,39.31,81,0,5.75,CL,1719962520
313,villa canas,-34.0057,-61.6076,55.92,10,2,7.18,AR,1719962521
314,east london,-33.0153,27.9116,61.39,76,66,4.85,ZA,1719962521
315,trairi,-3.2778,-39.2689,78.08,83,72,9.73,BR,1719962295
316,mersing,2.4312,103.8405,75.11,94,20,5.75,MY,1719962521
317,coxim,-18.5067,-54.76,77.56,30,0,2.44,BR,1719962521
318,coquimbo,-29.9533,-71.3436,62.98,54,0,6.91,CL,1719962440
319,muroto-misakicho,33.2833,134.15,78.44,89,93,10.07,JP,1719962521
320,ingeniero jacobacci,-41.3427,-69.5448,32.02,71,4,10.8,AR,1719962521
321,ruteng,-8.6136,120.4721,64.02,98,100,2.01,ID,1719962521
322,sredets,42.3475,27.179,75.31,90,78,3.27,BG,1719962521
323,bontang,0.1333,117.5,75.11,94,100,6.31,ID,1719962521
324,nova sintra,14.8667,-24.7167,74.57,82,56,3.04,CV,1719962521
325,weno,7.4515,151.8468,83.89,77,87,14.76,FM,1719962521
326,vila do maio,15.1333,-23.2167,75.99,83,100,4.32,CV,1719962521
327,luderitz,-26.6481,15.1594,53.49,84,4,6.96,NA,1719962522
328,brandon,27.9378,-82.2859,89.47,82,100,4.61,US,1719962522
329,palmer,42.1584,-72.3287,78.96,59,20,2.75,US,1719962522
330,jijel,36.8205,5.7667,69.75,68,0,3.44,DZ,1719962477
331,nuku'alofa,-21.1333,-175.2,79.14,73,20,10.36,TO,1719962522
332,dryden,49.7833,-92.7503,66.49,82,75,10.36,CA,1719962522
333,collecchio,44.754,10.2184,69.94,92,79,3.8,IT,1719962522
334,buala,-8.145,159.5921,84.36,74,67,10.96,SB,1719962522
335,challapalle,16.1167,80.9333,79.95,69,100,7.49,IN,1719962522
336,bandarbeyla,9.4942,50.8122,79.25,75,100,30.65,SO,1719962499
337,odda,60.0691,6.5457,53.78,86,100,4.47,NO,1719962522
338,berezovo,63.9381,65.0419,54.34,53,79,8.88,RU,1719962522
339,katima mulilo,-17.5,24.2667,56.68,42,0,5.7,NA,1719962522
340,polyarnyy,69.1989,33.4478,48.74,95,100,4.56,RU,1719962522
341,el porvenir,13.7617,-87.3458,79.93,84,77,2.73,HN,1719962522
342,kalmunai,7.4167,81.8167,80.62,80,100,2.1,LK,1719962523
343,nishon tumani,38.694,65.6751,62.85,51,0,2.3,UZ,1719962523
344,aldinga beach,-35.2793,138.4604,47.64,73,0,6.58,AU,1719962523
345,cannonvale,-20.2833,148.7,69.19,81,99,12.03,AU,1719962523
346,palm coast,29.585,-81.2078,89.08,68,0,13.8,US,1719962340
347,al bawiti,28.3492,28.8659,81.03,23,0,7.31,EG,1719962523
348,hadibu,12.65,54.0333,79.99,80,84,23.49,YE,1719962523
349,n'dalatando,-9.2978,14.9116,62.24,81,22,1.7,AO,1719962523
350,san patricio,28.017,-97.5169,93.16,52,74,15.03,US,1719962523
351,margate,51.3813,1.3862,54.9,87,100,10.27,GB,1719962523
352,martinsville,36.6915,-79.8725,84.18,34,0,3.44,US,1719962523
353,bitkine,11.9801,18.2138,82.53,61,99,3.65,TD,1719962523
354,chinde,26.8418,88.0763,66.65,97,100,3.94,NP,1719962523
355,nabire,-3.3667,135.4833,77.83,83,100,2.91,ID,1719962523
356,mermoz boabab,14.7065,-17.4758,81.16,78,20,9.22,SN,1719962523
357,kirensk,57.7853,108.1119,67.73,91,100,2.48,RU,1719962524
358,itaituba,-4.2761,-55.9836,75.9,90,92,4.16,BR,1719962524
359,torghay,49.6339,63.4981,71.44,46,82,3.83,KZ,1719962412
360,nova olinda do norte,-3.8881,-59.0942,79.54,74,79,3.27,BR,1719962524
361,puerto deseado,-47.7503,-65.8938,34.12,75,3,13.85,AR,1719962524
362,puerto aysen,-45.4,-72.7,38.8,99,100,5.99,CL,1719962524
363,saudarkrokur,65.7461,-19.6394,48.85,84,96,6.08,IS,1719962524
364,san rafael,-34.6177,-68.3301,57.96,21,83,10.76,AR,1719962524
365,badiyah,22.45,58.8,86.59,53,63,1.63,OM,1719962524
366,dangriga,16.9692,-88.2321,82.65,85,92,13.04,BZ,1719962524
367,tidjikja,18.5564,-11.4271,94.98,25,64,18.45,MR,1719962524
368,senanga,-16.1167,23.2667,55.99,38,1,5.91,ZM,1719962524
369,sayre,41.979,-76.5155,79.45,52,100,2.82,US,1719962524
370,ilha de mocambique,-15.0342,40.7358,76.46,66,28,13.53,MZ,1719962524
371,malhador,-10.6578,-37.3047,75.85,84,5,3.24,BR,1719962524
372,sultanah,24.4926,39.5857,91.85,10,0,12.66,SA,1719962525
373,tyazhinskiy,56.116,88.524,61.23,94,100,10.83,RU,1719962525
374,penzance,50.1186,-5.5371,56.08,77,100,11.92,GB,1719962525
375,kone,-21.0595,164.8658,80.58,57,53,2.08,NC,1719962525
376,lodwar,3.1191,35.5973,81.95,45,47,13.73,KE,1719962525
377,taksimo,56.3444,114.8794,81.19,41,3,1.48,RU,1719962525
378,kimberley,-28.7323,24.7623,44.29,76,23,2.3,ZA,1719962525
379,exu,-7.5119,-39.7242,68.92,51,2,4.18,BR,1719962525
380,kurmuk,10.55,34.2833,74.07,76,84,2.51,SD,1719962525
381,abha,18.2164,42.5053,71.42,21,20,5.75,SA,1719962525
382,selfoss,63.9331,-20.9971,49.05,87,99,1.32,IS,1719962525
383,nicoya,10.1483,-85.452,80.15,88,53,3.94,CR,1719962525
384,elko,41.0002,-115.5012,82.74,13,0,10.0,US,1719962525
385,saldanha,-33.0117,17.9442,48.25,92,83,9.48,ZA,1719962525
386,kushtagi,15.7667,76.2,74.07,83,89,18.37,IN,1719962525
387,belmonte,-15.8631,-38.8828,72.37,73,39,5.59,BR,1719962525
388,vernon,50.2581,-119.2691,72.21,39,79,3.83,CA,1719962263
389,sirte,31.2089,16.5887,77.59,73,1,16.13,LY,1719962526
390,walvis bay,-22.9575,14.5053,55.09,100,0,3.44,NA,1719962526
391,myrina,39.8797,25.0742,72.64,83,0,4.61,GR,1719962526
392,nova vicosa,-17.8919,-39.3719,72.63,77,0,5.7,BR,1719962526
393,kingscliff,-28.2667,153.5667,61.95,75,99,10.89,AU,1719962526
394,fonte boa,-2.4959,-66.2662,75.2,95,73,3.2,BR,1719962526
395,ciudad lazaro cardenas,17.9583,-102.2,80.55,74,100,6.58,MX,1719962526
396,acapulco de juarez,16.8634,-99.8901,84.02,74,100,8.05,MX,1719962285
397,al kharijah,25.4514,30.5464,85.75,19,0,8.01,EG,1719962526
398,noumea,-22.2763,166.4572,76.98,99,90,3.49,NC,1719962526
399,ambon,-3.6954,128.1814,80.87,95,75,2.3,ID,1719962526
400,keflavik,64.0049,-22.5624,50.43,81,100,10.36,IS,1719962526
401,nar'yan-mar,67.6713,53.087,56.98,96,100,17.16,RU,1719962526
402,multan,30.1956,71.4753,94.89,55,3,16.11,PK,1719962527
403,arawa,-6.2132,155.5367,85.91,66,68,4.25,PG,1719962527
404,gamba,-2.65,10.0,69.42,96,68,5.37,GA,1719962527
405,chisec,15.8167,-90.2833,89.83,81,53,2.39,GT,1719962527
406,plouguerneau,48.6,-4.5,55.78,92,0,3.44,FR,1719962527
407,vilyuysk,63.7553,121.6247,65.25,68,46,10.8,RU,1719962527
408,la passe,45.5549,-0.8967,62.98,84,100,9.66,FR,1719962527
409,boa vista,2.8197,-60.6733,82.38,69,40,2.3,BR,1719962527
410,lorengau,-2.0226,147.2712,77.65,83,100,2.57,PG,1719962527
411,pucheng,27.9233,118.5333,77.7,95,44,2.26,CN,1719962527
412,hami,42.8,93.45,78.15,40,100,15.93,CN,1719962527
413,kayangel,8.0823,134.7173,84.07,71,100,8.88,PW,1719962527
414,tura,25.5198,90.2201,75.33,99,100,4.68,IN,1719962527
415,sao tome,0.3365,6.7273,75.88,84,74,12.24,ST,1719962527
416,port alfred,-33.5906,26.891,57.9,84,63,4.92,ZA,1719962528
417,northam,51.0333,-4.2167,55.38,91,100,7.36,GB,1719962528
418,severnoye,56.3491,78.3619,57.34,93,35,3.31,RU,1719962528
419,botro,7.8525,-5.3106,74.37,84,45,5.23,CI,1719962528
420,qrendi,35.8347,14.4583,72.1,88,20,18.41,MT,1719962528
421,mitu,1.1983,-70.1733,74.46,97,73,1.41,CO,1719962528
422,quellon,-43.1167,-73.6167,41.83,82,78,9.57,CL,1719962528
423,san borja,-14.8167,-66.85,73.04,72,0,2.89,BO,1719962528
424,cabo san lucas,22.8909,-109.9124,89.91,42,100,5.75,MX,1719962528
425,eduardo castex,-35.915,-64.2945,54.9,41,37,11.23,AR,1719962528
426,teruel,40.6667,-0.6667,57.06,57,17,6.17,ES,1719962528
427,gond-pontouvre,45.6833,0.1667,60.37,77,0,3.44,FR,1719962528
428,las pintitas,20.56,-103.3065,75.04,64,75,11.5,MX,1719962528
429,tsiroanomandidy,-18.7667,46.0333,52.45,84,1,2.93,MG,1719962528
430,taoudenni,22.6783,-3.9836,104.23,8,0,18.28,ML,1719962529
431,princeville,45.7668,-61.2985,65.7,75,80,2.26,CA,1719962529
432,borba,-4.3878,-59.5939,80.19,69,50,2.57,BR,1719962529
433,inari,68.906,27.0288,46.96,98,100,4.76,FI,1719962529
434,okhotsk,59.3833,143.3,60.21,74,7,1.88,RU,1719962529
435,holualoa,19.6228,-155.9522,75.56,85,91,8.05,US,1719962529
436,sam roi yot,12.2708,99.872,80.58,86,99,3.36,TH,1719962529
437,akalkot,17.5333,76.2167,76.95,82,100,12.62,IN,1719962529
438,kailua-kona,19.6406,-155.9956,79.29,88,93,1.01,US,1719962529
439,quang ngai,15.1167,108.8,75.67,86,90,3.51,VN,1719962529
440,kapit,2.0167,112.9333,73.4,95,100,2.06,MY,1719962529
441,laojunmiao,39.8333,97.7333,67.59,29,13,5.88,CN,1719962529
442,nainwa,25.7667,75.85,83.95,74,99,14.18,IN,1719962529
443,pyu,18.4833,96.4333,75.31,97,100,5.57,MM,1719962530
444,ratnagiri,16.9833,73.3,81.23,86,100,11.5,IN,1719962530
445,bacalar,18.6667,-88.3833,84.31,79,75,11.5,MX,1719962530
446,usogorsk,63.4106,48.6872,61.25,88,5,4.05,RU,1719962530
447,sinhyeon,34.8825,128.6267,75.09,98,97,15.93,KR,1719962530
448,chunskiy,56.0815,99.6342,63.95,86,17,1.77,RU,1719962530
449,pandan,14.0453,124.1694,81.68,85,55,2.8,PH,1719962530
450,ploneour-lanvern,47.9,-4.2833,55.72,94,0,3.44,FR,1719962530
451,mizdah,31.4451,12.9801,73.53,41,41,3.36,LY,1719962530
452,mount isa,-20.7333,139.5,51.57,50,0,11.5,AU,1719962530
453,leiyang,26.4024,112.8591,77.67,94,100,5.7,CN,1719962530
454,waitara,-38.925,174.25,48.99,71,16,9.57,NZ,1719962530
455,copala,16.65,-98.9833,80.91,77,99,4.99,MX,1719962530
456,ceeldheer,3.8488,47.1806,76.59,84,50,14.63,SO,1719962530
457,amarante do maranhao,-5.5667,-46.7422,80.24,41,64,3.51,BR,1719962530
458,happy valley-goose bay,53.3168,-60.3315,71.91,46,75,5.75,CA,1719962530
459,tolanaro,-25.0319,46.9987,66.27,88,75,11.5,MG,1719962531
460,leeton,-34.5667,146.4,48.88,69,5,10.85,AU,1719962531
461,kudahuvadhoo,2.6708,72.8944,83.3,76,90,7.34,MV,1719962531
462,knyaze-volkonskoye,48.4642,135.4567,77.34,81,36,7.52,RU,1719962531
463,douentza,14.9951,-2.9517,80.33,73,76,25.19,ML,1719962531
464,namibe,-15.1961,12.1522,62.87,72,4,7.9,AO,1719962531
465,ghat,24.9647,10.1728,89.2,11,0,6.53,LY,1719962531
466,fuglafjordur,62.244,-6.814,48.67,93,100,2.62,FO,1719962531
467,new norfolk,-42.7826,147.0587,41.72,90,17,2.13,AU,1719962531
468,sumter,28.7086,-82.0831,90.19,80,95,5.61,US,1719962531
469,samastipur,25.85,85.7833,80.04,92,100,7.81,IN,1719962531
470,banfora,10.6333,-4.7667,77.4,81,80,4.72,BF,1719962471
471,grand island,40.925,-98.342,79.2,64,71,1.99,US,1719962531
472,camana,-16.6228,-72.7111,60.13,87,45,4.27,PE,1719962532
473,kenora,49.8167,-94.4337,66.78,88,42,11.01,CA,1719962455
474,kuala tungkal,-0.8167,103.4667,74.43,94,63,6.4,ID,1719962532
475,imbituva,-25.23,-50.6044,56.19,77,0,2.59,BR,1719962532
476,salym,60.0625,71.4789,43.88,83,0,5.1,RU,1719962532
477,debre werk',10.6667,38.1667,57.36,84,100,1.07,ET,1719962532
478,pendra,22.7667,81.95,75.63,88,100,4.72,IN,1719962532
479,al jawf,29.5,38.75,78.03,20,0,7.2,SA,1719962532
480,gallup,35.5281,-108.7426,84.96,34,20,14.97,US,1719962532
481,san fernando de apure,7.8878,-67.4724,77.31,93,79,4.23,VE,1719962532
482,nchelenge,-9.3451,28.734,65.07,51,23,5.55,ZM,1719962532
483,las lomitas,-24.7096,-60.593,70.97,56,0,4.7,AR,1719962532
484,bima,-8.4667,118.7167,75.47,96,100,2.8,ID,1719962532
485,pekanbaru,0.5333,101.45,75.52,100,95,0.0,ID,1719962532
486,mthatha,-31.5889,28.7844,46.96,100,51,1.14,ZA,1719962532
487,lanzhou,36.0564,103.7922,71.1,46,99,3.76,CN,1719962533
488,ambodifotatra,-16.9833,49.85,73.42,75,78,17.31,MG,1719962533
489,wynyard,-41.0,145.7167,45.19,74,0,4.0,AU,1719962533
490,muravlenko,63.7898,74.523,49.64,64,0,6.82,RU,1719962533
491,louis trichardt,-23.0439,29.9032,53.92,60,0,0.58,ZA,1719962533
492,carroll,39.5501,-77.0164,81.72,44,41,4.0,US,1719962533
493,luganville,-15.5333,167.1667,80.31,69,38,10.16,VU,1719962533
494,el granada,37.5027,-122.4694,104.49,29,0,14.97,US,1719962533
495,amga,60.8953,131.9608,76.8,59,67,4.9,RU,1719962533
496,siniscola,40.5719,9.6922,71.15,71,39,9.57,IT,1719962533
497,ascencion de guarayos,-15.8963,-63.1881,76.39,48,0,2.48,BO,1719962533
498,kapa'a,22.0752,-159.319,82.72,69,40,11.5,US,1719962534
499,gebeit,21.0667,36.3167,82.67,22,64,2.1,SD,1719962534
500,xinyuan,37.3,99.0,43.38,85,83,2.46,CN,1719962534
501,barclayville,4.6797,-8.2339,75.02,84,31,7.36,LR,1719962412
502,kokshetau,53.2775,69.3883,61.12,100,0,6.71,KZ,1719962534
503,kerikeri,-35.2268,173.9474,60.91,76,59,1.99,NZ,1719962534
504,altamira,-3.2033,-52.2064,79.93,74,91,3.09,BR,1719962534
505,middelburg,-25.7751,29.4648,50.45,49,1,2.28,ZA,1719962534
506,belyy yar,53.6039,91.3903,67.89,83,0,0.0,RU,1719962534
507,wellington,-41.2866,174.7756,50.05,72,75,28.77,NZ,1719962534
508,gusinoozyorsk,51.2833,106.5,65.62,65,11,0.67,RU,1719962534
509,talavera la real,38.8779,-6.7686,79.16,48,0,5.95,ES,1719962534
510,airuk,7.2772,168.8203,82.74,80,50,15.01,MH,1719962534
511,lata,40.1629,-8.3327,72.91,80,0,1.9,PT,1719962535
512,santa terezinha,-29.9002,-50.0904,56.55,82,0,6.82,BR,1719962535
513,progreso,21.2833,-89.6667,84.31,86,19,14.72,MX,1719962535
514,pangoa,-12.1167,-73.0,74.17,75,54,1.61,PE,1719962535
515,djamaa,33.5339,5.9931,86.85,27,0,2.42,DZ,1719962535
516,bumba,2.1833,22.4667,73.33,78,63,0.78,CD,1719962535
517,gizo,-8.103,156.8419,82.78,79,79,11.43,SB,1719962535
518,conceicao da barra,-18.5933,-39.7322,70.99,84,0,3.85,BR,1719962535
519,konarka,19.9,86.1167,82.8,77,99,10.96,IN,1719962535
520,plettenberg bay,-34.0527,23.3716,54.37,88,39,2.98,ZA,1719962535
521,guiuan,11.0333,125.7247,83.57,75,75,4.38,PH,1719962535
522,timbuktu,16.7735,-3.0074,98.53,27,0,14.52,ML,1719962535
523,valdez,1.2492,-78.9831,79.12,82,100,14.05,EC,1719962535
524,kota belud,6.351,116.4305,76.89,81,100,3.6,MY,1719962273
525,saint-pierre,-21.3393,55.4781,64.08,68,75,8.05,RE,1719962304
526,zhangye,38.9342,100.4517,71.82,28,41,6.8,CN,1719962536
527,paita,-5.0892,-81.1144,66.43,80,93,14.16,PE,1719962536
528,prado,-17.3411,-39.2208,72.97,77,13,4.85,BR,1719962536
529,nagqu,31.5,92.0,41.25,90,84,4.25,CN,1719962536
530,alofi,-19.0595,-169.9187,80.49,74,75,14.97,NU,1719962536
531,izhmorskiy,56.194,86.6414,61.54,96,100,7.49,RU,1719962536
532,tandil,-37.3217,-59.1332,47.68,70,5,9.8,AR,1719962348
533,pathein,16.7833,94.7333,77.38,92,100,4.18,MM,1719962536
534,arraial do cabo,-22.9661,-42.0278,66.16,94,0,3.44,BR,1719962262
535,neiafu,-18.65,-173.9833,83.08,74,40,11.5,TO,1719962536
536,puerto leguizamo,-0.1934,-74.7819,73.29,97,70,1.95,CO,1719962536
537,madalena,41.2162,-8.3345,69.3,80,3,1.88,PT,1719962536
538,taylorville,39.5489,-89.2945,87.78,42,0,17.27,US,1719962537
539,hincesti,46.8258,28.5936,76.57,90,75,10.2,MD,1719962537
540,columbus,39.9612,-82.9988,87.15,42,0,14.97,US,1719962537
541,gujba,11.5032,11.9367,85.21,50,86,10.25,NG,1719962537
542,mpika,-11.8343,31.4529,53.64,67,24,3.27,ZM,1719962537
543,lyskovo,56.0328,45.0422,71.51,69,93,5.5,RU,1719962537
544,rapla,59.0072,24.7928,55.11,94,95,2.75,EE,1719962537
545,katsuren-haebaru,26.3369,127.8719,88.57,79,40,9.22,JP,1719962537
546,portales,34.1862,-103.3344,95.49,25,44,26.11,US,1719962537
547,harper,4.375,-7.7169,76.46,81,70,12.82,LR,1719962537
548,weyburn,49.6668,-103.8511,61.02,88,71,14.97,CA,1719962537
549,torres,-29.3353,-49.7269,57.83,84,0,5.79,BR,1719962462
550,shache,38.4167,77.2406,78.1,29,0,4.14,CN,1719962538
551,bikenibeu village,1.3673,173.1241,87.76,79,40,12.66,KI,1719962538
552,susangerd,31.5608,48.1831,93.99,15,0,11.01,IR,1719962538
553,chegdomyn,51.1167,133.0167,76.37,51,0,3.29,RU,1719962538
554,udomlya,57.8794,34.9925,62.35,99,50,2.3,RU,1719962538
555,tikrit,34.6071,43.6782,87.04,18,0,10.07,IQ,1719962538
556,marsa alam,25.0757,34.8918,85.95,43,1,2.98,EG,1719962274
557,forked river,39.8398,-74.1901,77.32,69,77,1.01,US,1719962538
558,chebba,35.2372,11.115,74.98,62,0,16.82,TN,1719962538
559,kosh-agach,50.0,88.6667,50.4,76,100,1.7,RU,1719962538
560,letterkenny,54.95,-7.7333,49.37,94,100,6.73,IE,1719962538
561,gazli,40.1333,63.45,77.09,25,0,10.33,UZ,1719962539
562,juan griego,11.0817,-63.9655,84.33,89,42,18.41,VE,1719962539
563,huarmey,-10.0681,-78.1522,66.0,79,21,7.2,PE,1719962483
564,rosalie,15.3667,-61.2667,81.3,85,96,12.06,DM,1719962539
565,olyokminsk,60.3736,120.4264,74.43,72,87,7.47,RU,1719962539
566,rechka-vydrino,51.485,104.8461,61.61,81,29,2.84,RU,1719962539
567,canitas de felipe pescador,23.6,-102.7167,81.79,28,12,18.01,MX,1719962539
568,souillac,-20.5167,57.5167,70.18,78,20,9.22,MU,1719962539
569,sarh,9.1429,18.3923,78.37,64,65,3.0,TD,1719962539
570,shalkar,47.8288,59.6258,72.46,55,22,5.59,KZ,1719962539
571,ancud,-41.8697,-73.8203,44.2,71,64,9.82,CL,1719962539
572,port macquarie,-31.4333,152.9167,55.89,96,94,5.01,AU,1719962540
573,tsiombe,-25.3,45.4833,66.79,76,0,11.59,MG,1719962540
574,berdigestyakh,62.0989,126.6992,71.49,81,99,6.33,RU,1719962540
575,manado,1.487,124.8455,79.57,89,40,1.14,ID,1719962540
576,angra do heroismo,38.65,-27.2167,76.12,83,75,1.01,PT,1719962540
577,o carballino,42.4316,-8.079,57.22,85,31,4.43,ES,1719962540
578,salekhard,66.53,66.6019,52.97,61,95,6.2,RU,1719962540
579,awjilah,29.1081,21.2869,87.33,25,0,6.46,LY,1719962540
580,longavi,-35.9667,-71.6833,46.8,95,93,4.7,CL,1719962540
581,antsiranana,-12.2787,49.2917,69.15,77,76,7.65,MG,1719962540
582,khadan khak,30.7477,67.7085,73.9,67,1,7.49,PK,1719962540
583,bamboo flat,11.7,92.7167,80.69,89,40,2.3,IN,1719962540
584,boguchany,58.3814,97.4531,68.63,70,98,1.72,RU,1719962540
585,roxas,11.5853,122.7511,79.14,82,100,1.14,PH,1719962541
